{"@id":"https://w3id.org/coal%20maps25.08.23%20-%20Sheet1","type":"FeatureCollection","@context":"https://w3id.org/locolligo/contexts/linkedplaces.jsonld","features":[{"@id":"https://w3id.org/coal%20maps25.08.23%20-%20Sheet1/893b9633-468a-478a-8e5e-0b535963dcc5","type":"Feature","properties":{"title":"1974 - Westoe Colliery, Ranging arm machinery along with a Miner observing it","url":"https://thecommonroom.org.uk/collection/westoe-colliery-ranging-arm-shearer-underground-machinery-people-19223/page-4-25701/"},"geometry":{"type":"Point","coordinates":[-1.416958,54.994924]}},{"@id":"https://w3id.org/coal%20maps25.08.23%20-%20Sheet1/64ace51a-10aa-4ffa-8819-fc867c5444fb","type":"Feature","properties":{"title":"1830 - Engraving of fossil tree at Cresswell","url":"https://thecommonroom.org.uk/collection/engravings-of-fossil-tree-at-cresswell-15592/page-161-26422/"},"geometry":{"type":"Point","coordinates":[-1.54025,55.23567]}},{"@id":"https://w3id.org/coal%20maps25.08.23%20-%20Sheet1/217b5b72-8b25-4a29-a3ae-9f7b1ac7eb0c","type":"Feature","properties":{"title":"1887 - Under the Coal Tyne by John Hodgson Campbell based on his visits to Redheugh Colliery ","url":"https://thecommonroom.org.uk/collection/under-the-coaly-tyne-painting-15570/folder-22047/"},"geometry":{"type":"Point","coordinates":[-1.619513,54.957647]}},{"@id":"https://w3id.org/coal%20maps25.08.23%20-%20Sheet1/4221fad9-e0fd-4c05-ad85-ea634af54a88","type":"Feature","properties":{"title":"date unknown - 600' Central Mine, Broken Hill, Australia","url":"https://thecommonroom.org.uk/collection/600-central-mine-broken-hill-h-f-bulman-19184/page-9-25662/"},"geometry":{"type":"Point","coordinates":[141.45583,-31.97694]}},{"@id":"https://w3id.org/coal%20maps25.08.23%20-%20Sheet1/708f8d65-89c7-400f-9fbf-a0f9a5b77f7a","type":"Feature","properties":{"title":"Date unknown - Library of Parliament, Ottowa, Canada","url":"https://thecommonroom.org.uk/collection/library-of-parliament-ottawa-canada-19213/page-40-25691/"},"geometry":{"type":"Point","coordinates":[-75.700233,45.425507]}},{"@id":"https://w3id.org/coal%20maps25.08.23%20-%20Sheet1/f368f670-352e-4b98-b062-8313db465122","type":"Feature","properties":{"title":"Date unknown -  Westoe Crown Shaft","url":"https://thecommonroom.org.uk/collection/westoe-crown-shaft-19220/page-1-25698/"},"geometry":{"type":"Point","coordinates":[-1.416958,54.994924]}},{"@id":"https://w3id.org/coal%20maps25.08.23%20-%20Sheet1/5c11179f-0fcf-447c-aedc-922419336cb7","type":"Feature","properties":{"title":"1974 - Acklington R.A.F Station ","url":"https://thecommonroom.org.uk/collection/opencast-acklington-raf-station-19269/page-50-25747/"},"geometry":{"type":"Point","coordinates":[-1.641666667,55.3]}},{"@id":"https://w3id.org/coal%20maps25.08.23%20-%20Sheet1/29280ab5-4a3a-43f4-a587-176d8cb83a86","type":"Feature","properties":{"title":"1980 - Blyth Harbour ","url":"https://thecommonroom.org.uk/collection/blyth-harbour-vertical-aerial-view-19267/page-48-25745/"},"geometry":{"type":"Point","coordinates":[-1.50273233,55.13069916]}},{"@id":"https://w3id.org/coal%20maps25.08.23%20-%20Sheet1/751bec61-a300-4ddc-bd33-a4ea0c17a7d5","type":"Feature","properties":{"title":"Date unknown - Quincy No. 2 Shaft, Rookhouse","url":"https://thecommonroom.org.uk/collection/quincy-no-2-shaft-rookhouse-photo-by-islar-19187/page-13-25665/#collection-gallery"},"geometry":{"type":"Point","coordinates":[-88.5731,47.1357]}},{"@id":"https://w3id.org/coal%20maps25.08.23%20-%20Sheet1/c4b34daa-7de2-4186-89b2-ee677f6ef802","type":"Feature","properties":{"title":"1980 - Seaham by air","url":"https://thecommonroom.org.uk/collection/seaham-vertical-aerial-photo-19257/page-38-25735/"},"geometry":{"type":"Point","coordinates":[-1.325521,54.83615]}},{"@id":"https://w3id.org/coal%20maps25.08.23%20-%20Sheet1/8c1f021f-0138-4cee-b5b4-1cfd59c76ce7","type":"Feature","properties":{"title":"Date Unknown - Miner standing underground in Ellington Colliery ","url":"https://thecommonroom.org.uk/collection/ellington-colliery-underground-19254/page-35-25732/"},"geometry":{"type":"Point","coordinates":[-1.5562069,55.219717]}},{"@id":"https://w3id.org/coal%20maps25.08.23%20-%20Sheet1/9055f1d3-3cce-4f20-a093-7c19f0414d2c","type":"Feature","properties":{"title":"Date unknown - Miner working with equipment in Ellington Colliery","url":"https://thecommonroom.org.uk/collection/ellington-colliery-northumberland-19251/page-32-25729/"},"geometry":{"type":"Point","coordinates":[-1.5562069,55.219717]}},{"@id":"https://w3id.org/coal%20maps25.08.23%20-%20Sheet1/e510e271-2393-4d68-be9f-95b2c04f5ecc","type":"Feature","properties":{"title":"Date unknown - Ariel view of Ellington Colliery ","url":"https://thecommonroom.org.uk/collection/ellington-colliery-northumberland-aerial-view-19246/page-27-25724/#collection-gallery"},"geometry":{"type":"Point","coordinates":[-1.5562069,55.218272]}},{"@id":"https://w3id.org/coal%20maps25.08.23%20-%20Sheet1/73a25261-c6bf-4bbb-8980-9ddd19b85fce","type":"Feature","properties":{"title":"Date unknown - Jarrow Coal terminal aerial view","url":"https://thecommonroom.org.uk/collection/jarrow-coal-terminal-aerial-view-19259/page-40-25737/"},"geometry":{"type":"Point","coordinates":[-1.4826042,54.982909]}},{"@id":"https://w3id.org/coal%20maps25.08.23%20-%20Sheet1/8c0d763e-fa6d-4f46-86eb-105535f3338a","type":"Feature","properties":{"title":"1973 - Man working the underground conveyor system in Dawdon Colliery","url":"https://thecommonroom.org.uk/collection/dawdon-colliery-underground-conveyor-system-19233/page-14-25711/#collection-gallery"},"geometry":{"type":"Point","coordinates":[-1.3229363,54.823154]}},{"@id":"https://w3id.org/coal%20maps25.08.23%20-%20Sheet1/9739d571-195b-4826-ad11-ed6b0c934982","type":"Feature","properties":{"title":"1973 - a dosco Roadheader in Murton Colliery","url":"https://thecommonroom.org.uk/collection/murton-colliery-dosco-roadheader-19245/page-26-25723/#collection-gallery"},"geometry":null},{"@id":"https://w3id.org/coal%20maps25.08.23%20-%20Sheet1/747d9438-1443-4d50-89cf-defb9e4a609a","type":"Feature","properties":{"title":"Date unknown - Photograph of Mount Stephen in British Columbia from Kicking Horse River","url":"https://thecommonroom.org.uk/collection/1169-mt-stephen-from-kicking-horse-river-rockies-back-photo-by-boorne-and-may-calgary-19206/page-32-25684/"},"geometry":{"type":"Point","coordinates":[-116.436354,51.398938]}},{"@id":"https://w3id.org/coal%20maps25.08.23%20-%20Sheet1/c9e76f19-a004-4006-98b2-9d3197c1cb3a","type":"Feature","properties":{"title":"Date Unknown - Mouth of Sundance Canyon in Banff","url":"https://thecommonroom.org.uk/collection/1271-mouth-of-sundance-canyon-banff-19207/page-33-25685/"},"geometry":{"type":"Point","coordinates":[-115.615562,51.154094]}},{"@id":"https://w3id.org/coal%20maps25.08.23%20-%20Sheet1/0f9909a4-5f2c-4a17-8bbf-d466a2975e8d","type":"Feature","properties":{"title":"Date Unknown - Enclosure at Adelaide Zoo containing a stork","url":"https://thecommonroom.org.uk/collection/hawthorn-site-vertical-aerial-view-19278/page-59-25756/"},"geometry":{"type":"Point","coordinates":[138.6058333,-34.91416667]}},{"@id":"https://w3id.org/coal%20maps25.08.23%20-%20Sheet1/17cdb37e-f45e-4ec5-8fac-a90e2ead5e7b","type":"Feature","properties":{"title":"1979 - Ariel View of Hawthorn Colliery ","url":"https://thecommonroom.org.uk/collection/hawthorn-site-vertical-aerial-view-19278/page-59-25756/"},"geometry":{"type":"Point","coordinates":[-1.32309,54.81048]}},{"@id":"https://w3id.org/coal%20maps25.08.23%20-%20Sheet1/f60b92d7-7ec0-45b2-bb74-2f557e0789e8","type":"Feature","properties":{"title":"1974 - Opencast mine in Nackshivan ","url":"https://thecommonroom.org.uk/collection/opencast-nackshivan-co-durham-aerial-view-19271/page-52-25749/"},"geometry":{"type":"Point","coordinates":[-1.7110282,54.725799]}},{"@id":"https://w3id.org/coal%20maps25.08.23%20-%20Sheet1/4fc7c002-2927-4253-a52f-54cb4aa1f558","type":"Feature","properties":{"title":"1974 - Ariel View of an opencast mine on the Ragpath Site","url":"https://thecommonroom.org.uk/collection/opencast-ragpath-site-co-durham-aerial-view-19270/page-51-25748/"},"geometry":{"type":"Point","coordinates":[-1.763611111,54.79861111]}},{"@id":"https://w3id.org/coal%20maps25.08.23%20-%20Sheet1/f258fa84-60ff-4890-a84b-8e64f01068af","type":"Feature","properties":{"title":"1974 - Dawdon Colliery, rack a track","url":"https://thecommonroom.org.uk/collection/dawdon-rack-a-track-19285/page-66-25763/"},"geometry":{"type":"Point","coordinates":[-1.3229363,54.823154]}},{"@id":"https://w3id.org/coal%20maps25.08.23%20-%20Sheet1/b77c6383-09a6-4d91-a87d-6c476e6e225f","type":"Feature","properties":{"title":"Date unknown - Dawdon tunelling Machine","url":"https://thecommonroom.org.uk/collection/dawdon-tunnelling-machine-19244/page-25-25722/#collection-gallery"},"geometry":{"type":"Point","coordinates":[-1.3229363,54.823154]}},{"@id":"https://w3id.org/coal%20maps25.08.23%20-%20Sheet1/4cfb189f-6158-4fd0-9bf6-5fdef314ca1c","type":"Feature","properties":{"title":"Date unknown - Arieal view of the River Wear as it goes through Sunderland ","url":"https://thecommonroom.org.uk/collection/river-wear-sunderland-aerial-view-19268/page-49-25746/"},"geometry":{"type":"Point","coordinates":[-1.373123,54.910481]}},{"@id":"https://w3id.org/coal%20maps25.08.23%20-%20Sheet1/addbfefe-2547-48ed-b67c-6bb1868841f7","type":"Feature","properties":{"title":"Date unknown - Conveyer delivering spoil to beaches in Dawdon Beach","url":"https://thecommonroom.org.uk/collection/conveyer-delivering-spoil-to-beach-bulldozers-19478/page-8-25956/"},"geometry":{"type":"Point","coordinates":[-1.3214295,54.824093]}},{"@id":"https://w3id.org/coal%20maps25.08.23%20-%20Sheet1/443656c1-654f-42fd-b5ca-451a2fdfd30e","type":"Feature","properties":{"title":"1830 - Plan and Section of the Gilmerton Coalfield showing coal seams ","url":"https://thecommonroom.org.uk/collection/plan-and-section-of-the-gilmerton-coalfield-15677/page-407-26506/"},"geometry":{"type":"Point","coordinates":[-3.1274482,55.899949]}},{"@id":"https://w3id.org/coal%20maps25.08.23%20-%20Sheet1/f9f0e56d-5241-4be9-8e46-66b194949058","type":"Feature","properties":{"title":"1901 - Painting of George Baker Foster by H. Von Herkomer. Foster lived in Farnley Hill Corbridge during his life and was President of the North of England Mining Institute and Mechanical Engineers","url":"https://thecommonroom.org.uk/collection/george-baker-forster-painting-15566/folder-22038/"},"geometry":{"type":"Point","coordinates":[-2.005788,54.961262]}},{"@id":"https://w3id.org/coal%20maps25.08.23%20-%20Sheet1/d8d7c9e4-a370-4428-bb11-6f16508d460a","type":"Feature","properties":{"title":"Date unknown - Painting of William Cuthbert Blacket by unkown artists. Blackett, who attended Durham University lived in South Bailey and was President of the North of England Mining Institute and Mechanical Engineers","url":"https://thecommonroom.org.uk/collection/william-c-blackett-painting-15564/folder-22035/"},"geometry":{"type":"Point","coordinates":[-1.575314,54.772087]}},{"@id":"https://w3id.org/coal%20maps25.08.23%20-%20Sheet1/2b1cac5e-9ef4-404e-9476-eaf2e50b0fd0","type":"Feature","properties":{"title":"Date Unknown - Painting of George Stephenson by unkown artist. Stephenson is considered the \"Father of Railways\" with the \"Stephenson gauge\" still used as the standard for most of the world's railways","url":"https://thecommonroom.org.uk/collection/george-stephenson-painting-15565/folder-22036/"},"geometry":{"type":"Point","coordinates":[-1.5718211,55.027558]}},{"@id":"https://w3id.org/coal%20maps25.08.23%20-%20Sheet1/f4580311-06ee-45f7-b5e2-dac8e28d5985","type":"Feature","properties":{"title":"Date Unknown - Painting of John Bubble by an unkown artist. Bubble had a major influence on the development of Northen Coalfield and their saftey. Though working in many coalmines he started off his career working in Walllsend Colliery and died in Wallsend in 1843","url":"https://thecommonroom.org.uk/collection/john-buddle-painting-15552/folder-15056/"},"geometry":{"type":"Point","coordinates":[-1.5170374,54.991228]}},{"@id":"https://w3id.org/coal%20maps25.08.23%20-%20Sheet1/2e480e24-d654-4536-9d36-020956367da3","type":"Feature","properties":{"title":"Date unknown - Whaleback Ore Ships on Lake Huron","url":"https://thecommonroom.org.uk/collection/lake-huron-whalebacks-ore-ships-19311/page-2-25789/"},"geometry":{"type":"Point","coordinates":[-82.4,44.79999983]}},{"@id":"https://w3id.org/coal%20maps25.08.23%20-%20Sheet1/d1d8b2ee-79e2-4697-8d9f-91c68a0bebca","type":"Feature","properties":{"title":"Date unknown - Slocan City in Canada ","url":"https://thecommonroom.org.uk/collection/slocan-city-19313/page-4-25791/"},"geometry":{"type":"Point","coordinates":[-117.470909,49.766079]}},{"@id":"https://w3id.org/coal%20maps25.08.23%20-%20Sheet1/1ebbbf87-988f-4813-8c5a-0d5fd268beae","type":"Feature","properties":{"title":"Date Unknown - A picture of the Niagra Falls in the USA","url":"https://thecommonroom.org.uk/collection/niagara-falls-usa-19217/page-44-25695/"},"geometry":{"type":"Point","coordinates":[-79.07411377,43.08262805]}},{"@id":"https://w3id.org/coal%20maps25.08.23%20-%20Sheet1/c779ce4a-238d-4acb-a9da-5d22095009a9","type":"Feature","properties":{"title":"Date unknown - A picture of Broken Hills Australia where mining took place","url":"https://thecommonroom.org.uk/collection/vignette-for-head-pieces-3325-h-f-bulman-19178/page-3-25656/"},"geometry":{"type":"Point","coordinates":[141.45583,-31.97694]}},{"@id":"https://w3id.org/coal%20maps25.08.23%20-%20Sheet1/199e71e9-8b56-4a0c-a9f0-7ba6a8130400","type":"Feature","properties":{"title":"Date Unknown - Calumet Michigan, two men standing in front of a Calumet and Helcla Drift","url":"https://thecommonroom.org.uk/collection/front-underground-calumet-and-hecla-drift-604-back-view-of-face-of-drift-in-the-copper-bearing-bed-at-calumet-and-hecla-h-f-bulman-19192/page-18-25670/"},"geometry":{"type":"Point","coordinates":[-105.94785,38.63737]}},{"@id":"https://w3id.org/coal%20maps25.08.23%20-%20Sheet1/709a97ef-8849-4ab1-94c6-a8618fba9792","type":"Feature","properties":{"title":"Date unknown - Quincy Stamp Mill","url":"https://thecommonroom.org.uk/collection/quincy-stamp-mill-photo-by-19191/page-17-25669/"},"geometry":{"type":"Point","coordinates":[-88.460216,47.146736]}},{"@id":"https://w3id.org/coal%20maps25.08.23%20-%20Sheet1/e99a1a19-ab41-440a-ada4-6ba339390cb3","type":"Feature","properties":{"title":"Date unknown - Railway between Brisbane and Gympie","url":"https://thecommonroom.org.uk/collection/railway-between-brisbane-and-gympie-19195/page-21-25673/"},"geometry":{"type":"Point","coordinates":[153.0261,-27.4659]}},{"@id":"https://w3id.org/coal%20maps25.08.23%20-%20Sheet1/e89a4d5e-bb39-4829-a5a4-302ea701aadb","type":"Feature","properties":{"title":"Date unknown - Bow River Rapids in Canada. In the background a Canadian Pacific Railway (CPR) hotel can be seen. The hotel opened in 1888","url":"https://thecommonroom.org.uk/collection/bow-rapids-and-c-p-r-hotel-banff-19201/page-27-25679/"},"geometry":{"type":"Point","coordinates":[-115.561944,51.164444]}},{"@id":"https://w3id.org/coal%20maps25.08.23%20-%20Sheet1/07ef6ebb-21ea-4bd7-9c27-a34c3da3634f","type":"Feature","properties":{"title":"Date Unknown - University of Toronto Canada","url":"https://thecommonroom.org.uk/collection/university-of-toronto-canada-19216/page-43-25694/"},"geometry":{"type":"Point","coordinates":[-79.396446,43.663497]}},{"@id":"https://w3id.org/coal%20maps25.08.23%20-%20Sheet1/6e421276-6051-4f1e-bacb-85c639036dd7","type":"Feature","properties":{"title":"Date unknown - outside of the Parliament buildings in Toronto Canada ","url":"https://thecommonroom.org.uk/collection/parliament-buildings-toronto-canada-19215/page-42-25693/#collection-gallery"},"geometry":{"type":"Point","coordinates":[-79.39117826,43.66236228]}},{"@id":"https://w3id.org/coal%20maps25.08.23%20-%20Sheet1/778d82d0-e0c4-438b-bbc7-03fd28288bde","type":"Feature","properties":{"title":"Date unknown - Woodon Village with a Church in Nelson. The village is a fishing town","url":"https://thecommonroom.org.uk/collection/nelson-in-the-soo-canada-19310/page-1-25788/"},"geometry":{"type":"Point","coordinates":[141.016667,-38.05]}},{"@id":"https://w3id.org/coal%20maps25.08.23%20-%20Sheet1/18b77cd6-ef16-4e91-9baf-e888cfc481cb","type":"Feature","properties":{"title":"Date unknown - Regina Capital with an unknown man on a bicycle in front of a building","url":"https://thecommonroom.org.uk/collection/regina-capital-of-nw-territories-19314/page-5-25792/"},"geometry":{"type":"Point","coordinates":[-104.6181946,50.44549292]}},{"@id":"https://w3id.org/coal%20maps25.08.23%20-%20Sheet1/acc44698-7613-4d02-aae3-f0000c5267b5","type":"Feature","properties":{"title":"Date Unknown - Kalgwili hospital","url":"https://thecommonroom.org.uk/collection/kalgwili-hospital-19338/page-30-25816/"},"geometry":{"type":"Point","coordinates":[121.470045,-30.740452]}},{"@id":"https://w3id.org/coal%20maps25.08.23%20-%20Sheet1/a593b415-9608-4846-8c40-a8b62558eaef","type":"Feature","properties":{"title":"Date unknown - Kalguri in Australia, a miner is seen standing with a mahine with buildings behind him","url":"https://thecommonroom.org.uk/collection/dry-blower-kalgurli-h-f-bulman-19370/page-64-25848/#collection-gallery"},"geometry":{"type":"Point","coordinates":[121.465833,-30.748889]}},{"@id":"https://w3id.org/coal%20maps25.08.23%20-%20Sheet1/4d22131c-cff9-4dba-9f92-b7c1c878af41","type":"Feature","properties":{"title":"Date unknown - Port Pirie smelting works with manager of the plant, Mr Robertson, standing outside","url":"https://thecommonroom.org.uk/collection/mr-robertson-manager-smelting-works-port-pirie-19372/page-66-25850/"},"geometry":{"type":"Point","coordinates":[138.0092747,-33.16944318]}},{"@id":"https://w3id.org/coal%20maps25.08.23%20-%20Sheet1/cdb784e8-86b0-40f0-b0fb-18dd58715dc3","type":"Feature","properties":{"title":"Date Unknown - Portrait of Nicholas Wood, Painted by R. Turner. Nicholas Wood was the first president of the North of England Insitute of Mining and Mechanical Engineers, holding the position of President from its inauguration to his death. He was born near Ryton in 1795","url":"https://thecommonroom.org.uk/collection/nicholas-wood-painting-15562/folder-22033/"},"geometry":{"type":"Point","coordinates":[-1.75667343,54.97284358]}},{"@id":"https://w3id.org/coal%20maps25.08.23%20-%20Sheet1/80d82599-782f-447f-859c-4619c4e7a4e3","type":"Feature","properties":{"title":"Date Unknown - Map to accompany the survey of Agriculture in Northumberland by Bailey and Culley","url":"https://thecommonroom.org.uk/collection/slocan-lake-bc-19315/page-6-25793/"},"geometry":{"type":"Point","coordinates":[-117.390352,49.938917]}},{"@id":"https://w3id.org/coal%20maps25.08.23%20-%20Sheet1/f63aeb14-823e-40f9-966a-c239e5489373","type":"Feature","properties":{"title":"Date Unknown - Map to accompany the survey of Agriculture in Northumberland by Bailey and Culley","url":"https://thecommonroom.org.uk/collection/map-to-accompany-the-survey-of-agriculture-in-northumberland-by-bailey-and-culley-15607/page-203-26437/#collection-gallery"},"geometry":{"type":"Point","coordinates":[-1.687491667,55.16875]}},{"@id":"https://w3id.org/coal%20maps25.08.23%20-%20Sheet1/1decde99-7435-475c-9209-aae2707198da","type":"Feature","properties":{"title":"1829 - Article about Colliery explosions from 1805 to 1828 which notes the 1817 explosion at Row Pit at Harraton which killed 38 men. The list comes from an adress given to the Coal Trade Investigation in a Committee of the House of Lords","url":"https://thecommonroom.org.uk/collection/article-about-colliery-explosions-from-1805-to-1828-16026/page-111-26855/#collection-gallery"},"geometry":{"type":"Point","coordinates":[-1.5433469,54.876305]}},{"@id":"https://w3id.org/coal%20maps25.08.23%20-%20Sheet1/12295301-746e-4509-9d96-b60c642fac9a","type":"Feature","properties":{"title":"1829 - Article about Colliery explosions from 1805 to 1828 which notes the 1805, 1814 and 1825 explosion at Hebburn Colliery which killed 35,11 and 4 men respectively. The list comes from an adress given to the Coal Trade Investigation in a Committee of the House of Lords","url":"https://thecommonroom.org.uk/collection/article-about-colliery-explosions-from-1805-to-1828-16026/page-111-26855/#collection-gallery"},"geometry":{"type":"Point","coordinates":[-1.5102967,54.98262]}},{"@id":"https://w3id.org/coal%20maps25.08.23%20-%20Sheet1/4f75bdff-e279-466a-b2cb-bee8acecaa1d","type":"Feature","properties":{"title":"1829 - Article about Colliery explosions from 1805 to 1828 which notes the 1812, 1813 and 1821 explosion at Felling Colliery which killed 92,22 and 52 men respectively. The list comes from an adress given to the Coal Trade Investigation in a Committee of the House of Lords","url":"https://thecommonroom.org.uk/collection/article-about-colliery-explosions-from-1805-to-1828-16026/page-111-26855/#collection-gallery"},"geometry":{"type":"Point","coordinates":[-1.5721357,54.955364]}},{"@id":"https://w3id.org/coal%20maps25.08.23%20-%20Sheet1/27f9a221-e3ed-401e-98ac-9a13b4e84854","type":"Feature","properties":{"title":"1829 - Article about Colliery explosions from 1805 to 1828 which notes the 1812 explosion at Row Pit at Herrington Mill Pit which killed 23 men. The list comes from an adress given to the Coal Trade Investigation in a Committee of the House of Lords","url":"https://thecommonroom.org.uk/collection/article-about-colliery-explosions-from-1805-to-1828-16026/page-111-26855/#collection-gallery"},"geometry":{"type":"Point","coordinates":[-1.4902454,54.86806]}},{"@id":"https://w3id.org/coal%20maps25.08.23%20-%20Sheet1/edc966e0-b404-4bd7-b178-1acb00e141f2","type":"Feature","properties":{"title":"1829 - Article about Colliery explosions from 1805 to 1828 which notes the 1813 explosion at Hall Pit in Fatfield which killed 30 men. The list comes from an adress given to the Coal Trade Investigation in a Committee of the House of Lords","url":"https://thecommonroom.org.uk/collection/article-about-colliery-explosions-from-1805-to-1828-16026/page-111-26855/#collection-gallery"},"geometry":{"type":"Point","coordinates":[-1.5504804,54.885093]}},{"@id":"https://w3id.org/coal%20maps25.08.23%20-%20Sheet1/3bb2a4f3-6f45-46fe-b637-879d0ec91587","type":"Feature","properties":{"title":"1829 - Article about Colliery explosions from 1805 to 1828 which notes the 1815 explosion at Sucess Pit in Newbottle which killed 57 men. The list comes from an adress given to the Coal Trade Investigation in a Committee of the House of Lords","url":"https://thecommonroom.org.uk/collection/article-about-colliery-explosions-from-1805-to-1828-16026/page-111-26855/#collection-gallery"},"geometry":{"type":"Point","coordinates":[-1.491669,54.860175]}},{"@id":"https://w3id.org/coal%20maps25.08.23%20-%20Sheet1/fb8c9c86-67cd-46c6-89c8-172f75ce4541","type":"Feature","properties":{"title":"1829 - Article about Colliery explosions from 1805 to 1828 which notes the 1815 and 1819 explosion at Sheriff Hill which killed 11and 35 men respectively. The list comes from an adress given to the Coal Trade Investigation in a Committee of the House of Lords","url":"https://thecommonroom.org.uk/collection/article-about-colliery-explosions-from-1805-to-1828-16026/page-111-26855/#collection-gallery"},"geometry":{"type":"Point","coordinates":[-1.6006493,54.933246]}},{"@id":"https://w3id.org/coal%20maps25.08.23%20-%20Sheet1/2965913f-ef8f-4dd5-a40f-eae4a2830d3a","type":"Feature","properties":{"title":"1829 - Article about Colliery explosions from 1805 to 1828 which notes the 1817, 1826 and 1828 explosion at the Jarrow Colliery which killed 6, 34 and 8 men respectively. The list comes from an adress given to the Coal Trade Investigation in a Committee of the House of Lords","url":"https://thecommonroom.org.uk/collection/article-about-colliery-explosions-from-1805-to-1828-16026/page-111-26855/#collection-gallery"},"geometry":{"type":"Point","coordinates":[-1.4826042,54.982909]}},{"@id":"https://w3id.org/coal%20maps25.08.23%20-%20Sheet1/341618b3-f73d-4767-830a-1e9bc34f31d9","type":"Feature","properties":{"title":"1829 - Article about Colliery explosions from 1805 to 1828 which notes the 1817 and 1823 explosion at Plain Pit in Rainton which killed 26 and 57 men respectively. The list comes from an adress given to the Coal Trade Investigation in a Committee of the House of Lords","url":"https://thecommonroom.org.uk/collection/article-about-colliery-explosions-from-1805-to-1828-16026/page-111-26855/#collection-gallery"},"geometry":null},{"@id":"https://w3id.org/coal%20maps25.08.23%20-%20Sheet1/66dfa03b-68b2-48cb-9a9f-af7a7d1487f7","type":"Feature","properties":{"title":"1829 - Article about Colliery explosions from 1805 to 1828 which notes the 1818 and 1821 explosion at Wallsend Colliery which killed 4 and 52 men respectively. The list comes from an adress given to the Coal Trade Investigation in a Committee of the House of Lords","url":"https://thecommonroom.org.uk/collection/article-about-colliery-explosions-from-1805-to-1828-16026/page-111-26855/#collection-gallery"},"geometry":{"type":"Point","coordinates":[-1.5337258,54.987474]}},{"@id":"https://w3id.org/coal%20maps25.08.23%20-%20Sheet1/5f2db03c-b8f6-4fc2-bde4-297d7753daf2","type":"Feature","properties":{"title":"1829 - Handbill summarising evidence given to the House of Lords regarding the Coal trade, including questions about Wallsend Colliery","url":"https://thecommonroom.org.uk/collection/handbill-entitled-great-news-for-pitmen-including-a-new-song-16028/page-113-26857/#collection-gallery"},"geometry":{"type":"Point","coordinates":[-1.5337258,54.987474]}},{"@id":"https://w3id.org/coal%20maps25.08.23%20-%20Sheet1/52940616-430f-4e42-bb75-5c489cf1bc47","type":"Feature","properties":{"title":"1830 - A pamphlet entitled Proceedings at Law in the Case of King V Rusell and others relative to Coal Staithes erected at Wallsend on the River Tyne","url":"https://thecommonroom.org.uk/collection/proceedings-re-coal-staithes-at-wallsend-16035/page-215-222-26864/"},"geometry":{"type":"Point","coordinates":[-1.5337258,54.987474]}},{"@id":"https://w3id.org/coal%20maps25.08.23%20-%20Sheet1/4c82a166-c451-4fb7-816d-5d276ff990e5","type":"Feature","properties":{"title":"1831 - Newspaper cutting relating to a general meeting of coal owners, ship owners, merchants and others which resolved to petition both houses of Parliament for the abolition of the duty on coals exported","url":"https://thecommonroom.org.uk/collection/coal-duties-16037/page-235-238-26866/#collection-gallery"},"geometry":{"type":"Point","coordinates":[-1.60767,54.96842]}},{"@id":"https://w3id.org/coal%20maps25.08.23%20-%20Sheet1/2478678f-3d8c-4f0e-8987-6dc342f424bc","type":"Feature","properties":{"title":"1829 - Article about Colliery explosions from 1805 to 1828 which notes the 1819 and 1823 explosion at George Pit in the Lumley Colliery which killed 13 and 14 men respectively. The list comes from an adress given to the Coal Trade Investigation in a Committee of the House of Lords","url":"https://thecommonroom.org.uk/collection/article-about-colliery-explosions-from-1805-to-1828-16026/page-111-26855/#collection-gallery"},"geometry":{"type":"Point","coordinates":[-1.5322246,54.921644]}},{"@id":"https://w3id.org/coal%20maps25.08.23%20-%20Sheet1/6117cf01-7824-462e-9ff0-8db8de0e8a11","type":"Feature","properties":{"title":"1829 - Article about Colliery explosions from 1805 to 1828 which notes the 1821 explosion at Coxlodge Pit which killed one man. The list comes from an adress given to the Coal Trade Investigation in a Committee of the House of Lord","url":"https://thecommonroom.org.uk/collection/article-about-colliery-explosions-from-1805-to-1828-16026/page-111-26855/#collection-gallery"},"geometry":{"type":"Point","coordinates":[-1.6251889,55.011469]}},{"@id":"https://w3id.org/coal%20maps25.08.23%20-%20Sheet1/dec073f0-00b2-4f00-9e55-df93a44f0d36","type":"Feature","properties":{"title":"1829 - Article about Colliery explosions from 1805 to 1828 which notes the 1823 explosion at Ouston Colliery in Chester-lee-street which killed 4 men. The list comes from an adress given to the Coal Trade Investigation in a Committee of the House of Lord","url":"https://thecommonroom.org.uk/collection/article-about-colliery-explosions-from-1805-to-1828-16026/page-111-26855/#collection-gallery"},"geometry":{"type":"Point","coordinates":[-1.5898523,54.877711]}},{"@id":"https://w3id.org/coal%20maps25.08.23%20-%20Sheet1/f5910ea6-1bd0-4a88-8278-c02a7659401d","type":"Feature","properties":{"title":"1829 - Article about Colliery explosions from 1805 to 1828 which notes the 1823 explosion at Neasham's Dolly Pit in Shiftree which killed 11 men. The list comes from an adress given to the Coal Trade Investigation in a Committee of the House of Lord","url":"https://thecommonroom.org.uk/collection/article-about-colliery-explosions-from-1805-to-1828-16026/page-111-26855/#collection-gallery"},"geometry":{"type":"Point","coordinates":[-1.8033666,54.540275]}},{"@id":"https://w3id.org/coal%20maps25.08.23%20-%20Sheet1/9082efe9-3676-4d8d-a675-e9c94b7d14e0","type":"Feature","properties":{"title":"1829 - Article about Colliery explosions from 1805 to 1828 which notes the 1825 explosion at Juliet Pit in Fatfield which killed 11 men. The list comes from an adress given to the Coal Trade Investigation in a Committee of the House of Lord","url":"https://thecommonroom.org.uk/collection/article-about-colliery-explosions-from-1805-to-1828-16026/page-111-26855/#collection-gallery"},"geometry":{"type":"Point","coordinates":[-1.5230227,54.881762]}},{"@id":"https://w3id.org/coal%20maps25.08.23%20-%20Sheet1/a8ac8974-42f0-43c1-90f7-14417ee6f24e","type":"Feature","properties":{"title":"1829 - Article about Colliery explosions from 1805 to 1828 which notes the 1826 explosion at Townly Pit which killed 38 men. The list comes from an adress given to the Coal Trade Investigation in a Committee of the House of Lord","url":"https://thecommonroom.org.uk/collection/article-about-colliery-explosions-from-1805-to-1828-16026/page-111-26855/#collection-gallery"},"geometry":{"type":"Point","coordinates":[-1.7765979,54.969516]}},{"@id":"https://w3id.org/coal%20maps25.08.23%20-%20Sheet1/f1a7a093-9540-4ab0-bc8a-1d34f1f77c57","type":"Feature","properties":{"title":"1829 - Article about Colliery explosions from 1805 to 1828 which notes the 1826 explosion at Heworth Colliery which killed 4 men. The list comes from an adress given to the Coal Trade Investigation in a Committee of the House of Lord","url":"https://thecommonroom.org.uk/collection/article-about-colliery-explosions-from-1805-to-1828-16026/page-111-26855/#collection-gallery"},"geometry":{"type":"Point","coordinates":[-1.5598136,54.938371]}},{"@id":"https://w3id.org/coal%20maps25.08.23%20-%20Sheet1/32707116-c51b-4816-aa8a-62227c46a841","type":"Feature","properties":{"title":"1829 - Article about Colliery explosions from 1805 to 1828 which notes the 1826 explosion at Benwell Colliery which killed 2 men. The list comes from an adress given to the Coal Trade Investigation in a Committee of the House of Lord","url":"https://thecommonroom.org.uk/collection/article-about-colliery-explosions-from-1805-to-1828-16026/page-111-26855/#collection-gallery"},"geometry":{"type":"Point","coordinates":[-1.6656692,54.966701]}},{"@id":"https://w3id.org/coal%20maps25.08.23%20-%20Sheet1/48471613-e075-4274-9b9c-80ac81aa3884","type":"Feature","properties":{"title":"1829 - Article about Colliery explosions from 1805 to 1828 which notes the 1828 explosion at New Pit at Houghton-le-Spring which killed 7 men. The list comes from an adress given to the Coal Trade Investigation in a Committee of the House of Lord","url":"https://thecommonroom.org.uk/collection/article-about-colliery-explosions-from-1805-to-1828-16026/page-111-26855/#collection-gallery"},"geometry":{"type":"Point","coordinates":[-1.4741457,54.846819]}},{"@id":"https://w3id.org/coal%20maps25.08.23%20-%20Sheet1/c871bb57-637c-4228-9135-45817eec2311","type":"Feature","properties":{"title":"1829 - Article about Colliery explosions from 1805 to 1828 which notes the 1828 explosion at Washington Colliery which killed 11 men. The list comes from an adress given to the Coal Trade Investigation in a Committee of the House of Lord","url":"https://thecommonroom.org.uk/collection/article-about-colliery-explosions-from-1805-to-1828-16026/page-111-26855/#collection-gallery"},"geometry":{"type":"Point","coordinates":[-1.5298566,54.910626]}},{"@id":"https://w3id.org/coal%20maps25.08.23%20-%20Sheet1/b96979f1-9878-4c45-ab11-1af0d8a61ab5","type":"Feature","properties":{"title":"1831 - Newspaper cutting regarding the call for the abolition of the duty of coals, nicknamed the Richmond Shilling and the petition that was signed","url":"https://thecommonroom.org.uk/collection/coal-duties-16054/page-369-26883/#collection-gallery"},"geometry":{"type":"Point","coordinates":[-1.60767,54.96842]}},{"@id":"https://w3id.org/coal%20maps25.08.23%20-%20Sheet1/fd69f171-13f6-402b-8fe9-d9f9bd5c2d3c","type":"Feature","properties":{"title":"1834 - List of Collieries on the Tyne and their prices in September 1834, including the prices of Benwell Colliery ","url":"https://thecommonroom.org.uk/collection/collieries-on-the-tyne-and-coal-prices-16081/page-457-26910/#collection-gallery"},"geometry":{"type":"Point","coordinates":[-1.6656692,54.966701]}},{"@id":"https://w3id.org/coal%20maps25.08.23%20-%20Sheet1/637b34ae-9b48-400d-a877-36053e23b9d7","type":"Feature","properties":{"title":"1834 - List of Collieries on the Tyne and their prices in September 1834, including the prices of Hebburn Colliery ","url":"https://thecommonroom.org.uk/collection/collieries-on-the-tyne-and-coal-prices-16081/page-457-26910/#collection-gallery"},"geometry":{"type":"Point","coordinates":[-1.5102967,54.98262]}},{"@id":"https://w3id.org/coal%20maps25.08.23%20-%20Sheet1/1db9fadf-1dd7-4f3f-abca-596e8ce6189a","type":"Feature","properties":{"title":"1834 - List of Collieries on the Tyne and their prices in September 1834, including the prices of Heworth Colliery ","url":"https://thecommonroom.org.uk/collection/collieries-on-the-tyne-and-coal-prices-16081/page-457-26910/#collection-gallery"},"geometry":{"type":"Point","coordinates":[-1.5598136,54.938371]}},{"@id":"https://w3id.org/coal%20maps25.08.23%20-%20Sheet1/ec37e8a8-e42f-4b81-8045-6ab974a50cab","type":"Feature","properties":{"title":"1834 - List of Collieries on the Tyne and their prices in September 1834, including the prices of Jarrow Colliery ","url":"https://thecommonroom.org.uk/collection/collieries-on-the-tyne-and-coal-prices-16081/page-457-26910/#collection-gallery"},"geometry":{"type":"Point","coordinates":[-1.4826042,54.982909]}},{"@id":"https://w3id.org/coal%20maps25.08.23%20-%20Sheet1/f3bef078-9e10-4d8c-af32-1725116e6016","type":"Feature","properties":{"title":"1834 - List of Collieries on the Tyne and their prices in September 1834, including the prices of Ouston Colliery ","url":"https://thecommonroom.org.uk/collection/collieries-on-the-tyne-and-coal-prices-16081/page-457-26910/#collection-gallery"},"geometry":{"type":"Point","coordinates":[-1.5898523,54.877711]}},{"@id":"https://w3id.org/coal%20maps25.08.23%20-%20Sheet1/a3c9f3b8-763f-42a0-ad17-b40ca3d8c9a8","type":"Feature","properties":{"title":"1834 - List of Collieries on the Tyne and their prices in September 1834, including the prices of Sheriff Hill Colliery","url":"https://thecommonroom.org.uk/collection/collieries-on-the-tyne-and-coal-prices-16081/page-457-26910/#collection-gallery"},"geometry":{"type":"Point","coordinates":[-1.6006493,54.933246]}},{"@id":"https://w3id.org/coal%20maps25.08.23%20-%20Sheet1/c4874592-7a8b-4984-95c2-083e774a7f37","type":"Feature","properties":{"title":"1834 - List of Collieries on the Tyne and their prices in September 1834, including the prices of Townley Colliery ","url":"https://thecommonroom.org.uk/collection/collieries-on-the-tyne-and-coal-prices-16081/page-457-26910/#collection-gallery"},"geometry":{"type":"Point","coordinates":[-1.7765979,54.969516]}},{"@id":"https://w3id.org/coal%20maps25.08.23%20-%20Sheet1/fa657898-1f32-4b95-ba65-ecc19f2a0468","type":"Feature","properties":{"title":"1834 - List of Collieries on the Tyne and their prices in September 1834, including the prices of Wallsend Colliery ","url":"https://thecommonroom.org.uk/collection/collieries-on-the-tyne-and-coal-prices-16081/page-457-26910/#collection-gallery"},"geometry":{"type":"Point","coordinates":[-1.5337258,54.987474]}},{"@id":"https://w3id.org/coal%20maps25.08.23%20-%20Sheet1/0f57ef45-31e5-41cc-9db4-abd4668567b5","type":"Feature","properties":{"title":"1834 - List of Collieries on the Tyne and their prices in September 1834, including the prices of Callerton Colliery","url":"https://thecommonroom.org.uk/collection/collieries-on-the-tyne-and-coal-prices-16081/page-457-26910/#collection-gallery"},"geometry":{"type":"Point","coordinates":[-1.746561,55.02146]}},{"@id":"https://w3id.org/coal%20maps25.08.23%20-%20Sheet1/f36bb7ba-2523-4061-bc1a-1f9428fb57d9","type":"Feature","properties":{"title":"1834 - List of Collieries on the Tyne and their prices in September 1834, including the prices of Killingworth Colliery","url":"https://thecommonroom.org.uk/collection/collieries-on-the-tyne-and-coal-prices-16081/page-457-26910/#collection-gallery"},"geometry":{"type":"Point","coordinates":[-1.5540852,55.030073]}},{"@id":"https://w3id.org/coal%20maps25.08.23%20-%20Sheet1/7a878ada-cc99-4e77-9add-d09928be9d86","type":"Feature","properties":{"title":"1834 - List of Collieries on the Tyne and their prices in September 1834, including the prices of Burradon  Colliery","url":"https://thecommonroom.org.uk/collection/collieries-on-the-tyne-and-coal-prices-16081/page-457-26910/#collection-gallery"},"geometry":{"type":"Point","coordinates":[-1.5737332,55.046391]}},{"@id":"https://w3id.org/coal%20maps25.08.23%20-%20Sheet1/0ac499f1-e46c-4a16-8f63-2f489bb5c66e","type":"Feature","properties":{"title":"1834 - List of Collieries on the Tyne and their prices in September 1834, including the prices of Backworth  Colliery","url":"https://thecommonroom.org.uk/collection/collieries-on-the-tyne-and-coal-prices-16081/page-457-26910/#collection-gallery"},"geometry":{"type":"Point","coordinates":[-1.5260359,55.040634]}},{"@id":"https://w3id.org/coal%20maps25.08.23%20-%20Sheet1/fa9ad3ab-d829-4610-afef-729c70439820","type":"Feature","properties":{"title":"1834 - List of Collieries on the Tyne and their prices in September 1834, including the prices of Collingwood  Colliery","url":"https://thecommonroom.org.uk/collection/collieries-on-the-tyne-and-coal-prices-16081/page-457-26910/#collection-gallery"},"geometry":{"type":"Point","coordinates":[-1.4583983,55.00509]}},{"@id":"https://w3id.org/coal%20maps25.08.23%20-%20Sheet1/1d6543bf-6bf2-4c19-b0b3-b04dbcd61e60","type":"Feature","properties":{"title":"1834 - List of Collieries on the Tyne and their prices in September 1834, including the prices of Cramlington  Colliery","url":"https://thecommonroom.org.uk/collection/collieries-on-the-tyne-and-coal-prices-16081/page-457-26910/#collection-gallery"},"geometry":{"type":"Point","coordinates":[-1.5660787,55.081275]}},{"@id":"https://w3id.org/coal%20maps25.08.23%20-%20Sheet1/249d4332-6a32-45ea-bbb7-ccb0b9af3051","type":"Feature","properties":{"title":"1834 - List of Collieries on the Tyne and their prices in September 1834, including the prices of Elswick  Colliery","url":"https://thecommonroom.org.uk/collection/collieries-on-the-tyne-and-coal-prices-16081/page-457-26910/#collection-gallery"},"geometry":{"type":"Point","coordinates":[-1.6413,54.972302]}},{"@id":"https://w3id.org/coal%20maps25.08.23%20-%20Sheet1/9b5b99b0-ca4c-4169-a76e-e276ca079c82","type":"Feature","properties":{"title":"1834 - List of Collieries on the Tyne and their prices in September 1834, including the prices of Fawdon  Colliery","url":"https://thecommonroom.org.uk/collection/collieries-on-the-tyne-and-coal-prices-16081/page-457-26910/#collection-gallery"},"geometry":{"type":"Point","coordinates":[-1.6460854,55.014362]}},{"@id":"https://w3id.org/coal%20maps25.08.23%20-%20Sheet1/fdb3bfa6-62ba-4b3f-a612-855f6d71fb20","type":"Feature","properties":{"title":"1834 - List of Collieries on the Tyne and their prices in September 1834, including the prices of Gosforth  Colliery","url":"https://thecommonroom.org.uk/collection/collieries-on-the-tyne-and-coal-prices-16081/page-457-26910/#collection-gallery"},"geometry":{"type":"Point","coordinates":[-1.6043975,55.007719]}},{"@id":"https://w3id.org/coal%20maps25.08.23%20-%20Sheet1/21b4991b-ded6-475d-a1b9-1072ad251e5e","type":"Feature","properties":{"title":"1834 - List of Collieries on the Tyne and their prices in September 1834, including the prices of Heaton  Colliery","url":"https://thecommonroom.org.uk/collection/collieries-on-the-tyne-and-coal-prices-16081/page-457-26910/#collection-gallery"},"geometry":{"type":"Point","coordinates":[-1.5883318,54.98866]}},{"@id":"https://w3id.org/coal%20maps25.08.23%20-%20Sheet1/fb25bbe1-e88e-489b-ba08-2fdb7d26e77e","type":"Feature","properties":{"title":"1834 - List of Collieries on the Tyne and their prices in September 1834, including the prices of Holywell  Colliery","url":"https://thecommonroom.org.uk/collection/collieries-on-the-tyne-and-coal-prices-16081/page-457-26910/#collection-gallery"},"geometry":{"type":"Point","coordinates":[-1.5145528,55.067601]}},{"@id":"https://w3id.org/coal%20maps25.08.23%20-%20Sheet1/c1ba76c8-561e-480a-ab86-036ef18084a7","type":"Feature","properties":{"title":"1834 - List of Collieries on the Tyne and their prices in September 1834, including the prices of Monkseaton  Colliery","url":"https://thecommonroom.org.uk/collection/collieries-on-the-tyne-and-coal-prices-16081/page-457-26910/#collection-gallery"},"geometry":{"type":"Point","coordinates":[-1.4439813,55.040287]}},{"@id":"https://w3id.org/coal%20maps25.08.23%20-%20Sheet1/ffa22789-1d73-4bcf-9bbe-b8b2c74b4222","type":"Feature","properties":{"title":"1834 - List of Collieries on the Tyne and their prices in September 1834, including the prices of Mount Moor Colliery in Springwell","url":"https://thecommonroom.org.uk/collection/collieries-on-the-tyne-and-coal-prices-16081/page-457-26910/#collection-gallery"},"geometry":{"type":"Point","coordinates":[-1.5563055,54.923846]}},{"@id":"https://w3id.org/coal%20maps25.08.23%20-%20Sheet1/0aebd199-9c07-45f8-b1f5-bcb1722f7556","type":"Feature","properties":{"title":"1834 - List of Collieries on the Tyne and their prices in September 1834, including the prices of Percy Main Colliery ","url":"https://thecommonroom.org.uk/collection/collieries-on-the-tyne-and-coal-prices-16081/page-457-26910/#collection-gallery"},"geometry":{"type":"Point","coordinates":[-1.4741032,54.997305]}},{"@id":"https://w3id.org/coal%20maps25.08.23%20-%20Sheet1/3dbecf7b-b796-40dd-ad0b-5aade77a46e2","type":"Feature","properties":{"title":"1834 - List of Collieries on the Tyne and their prices in September 1834, including the prices of Seghill Colliery ","url":"https://thecommonroom.org.uk/collection/collieries-on-the-tyne-and-coal-prices-16081/page-457-26910/#collection-gallery"},"geometry":{"type":"Point","coordinates":[-1.5474334,55.067845]}},{"@id":"https://w3id.org/coal%20maps25.08.23%20-%20Sheet1/3afffd89-f896-47e6-8cf2-bcf0eb7dcb0e","type":"Feature","properties":{"title":"1834 - List of Collieries on the Tyne and their prices in September 1834, including the prices of Springwelll Colliery ","url":"https://thecommonroom.org.uk/collection/collieries-on-the-tyne-and-coal-prices-16081/page-457-26910/#collection-gallery"},"geometry":{"type":"Point","coordinates":[-1.5611038,54.910177]}},{"@id":"https://w3id.org/coal%20maps25.08.23%20-%20Sheet1/ee3b8eac-9904-4e99-9739-c9ea4a553f26","type":"Feature","properties":{"title":"1834 - List of Collieries on the Tyne and their prices in September 1834, including the prices of St Lawrence Colliery in Byker","url":"https://thecommonroom.org.uk/collection/collieries-on-the-tyne-and-coal-prices-16081/page-457-26910/#collection-gallery"},"geometry":{"type":"Point","coordinates":[-1.5818615,54.970638]}},{"@id":"https://w3id.org/coal%20maps25.08.23%20-%20Sheet1/db188dda-6a75-410c-811f-876a921e4765","type":"Feature","properties":{"title":"1834 - List of Collieries on the Tyne and their prices in September 1834, including the prices of Team Colliery","url":"https://thecommonroom.org.uk/collection/collieries-on-the-tyne-and-coal-prices-16081/page-457-26910/#collection-gallery"},"geometry":{"type":"Point","coordinates":[1.591741,54.917527]}},{"@id":"https://w3id.org/coal%20maps25.08.23%20-%20Sheet1/dac4fa61-3107-4a3e-8438-8173cb3241cf","type":"Feature","properties":{"title":"1834 - List of Collieries on the Tyne and their prices in September 1834, including the prices of Tanfield Lea & Garsfield Colliery","url":"https://thecommonroom.org.uk/collection/collieries-on-the-tyne-and-coal-prices-16081/page-457-26910/#collection-gallery"},"geometry":{"type":"Point","coordinates":[-1.7131944,54.87952]}},{"@id":"https://w3id.org/coal%20maps25.08.23%20-%20Sheet1/ce839290-3441-4fb6-8f3d-1f1929f2f43b","type":"Feature","properties":{"title":"1834 - List of Collieries on the Tyne and their prices in September 1834, including the prices of Tanfield Moor Colliery","url":"https://thecommonroom.org.uk/collection/collieries-on-the-tyne-and-coal-prices-16081/page-457-26910/#collection-gallery"},"geometry":{"type":"Point","coordinates":[-1.6990648,54.891204]}},{"@id":"https://w3id.org/coal%20maps25.08.23%20-%20Sheet1/9af1f868-52c0-41da-975b-f07a99d9af46","type":"Feature","properties":{"title":"1834 - List of Collieries on the Tyne and their prices in September 1834, including the prices of Usworth Colliery","url":"https://thecommonroom.org.uk/collection/collieries-on-the-tyne-and-coal-prices-16081/page-457-26910/#collection-gallery"},"geometry":{"type":"Point","coordinates":[-1.5099497,54.91868]}},{"@id":"https://w3id.org/coal%20maps25.08.23%20-%20Sheet1/e087df4d-ef7b-48c8-84b8-827946ad6caa","type":"Feature","properties":{"title":"1834 - List of Collieries on the Tyne and their prices in September 1834, including the prices of Tyne Main Colliery","url":"https://thecommonroom.org.uk/collection/collieries-on-the-tyne-and-coal-prices-16081/page-457-26910/#collection-gallery"},"geometry":{"type":"Point","coordinates":[-1.572941,54.962356]}},{"@id":"https://w3id.org/coal%20maps25.08.23%20-%20Sheet1/54a49ab1-feee-468f-9108-cc7d934ad6a5","type":"Feature","properties":{"title":"1834 - List of Collieries on the Tyne and their prices in September 1834, including the prices of Waldridge Colliery","url":"https://thecommonroom.org.uk/collection/collieries-on-the-tyne-and-coal-prices-16081/page-457-26910/#collection-gallery"},"geometry":{"type":"Point","coordinates":[-1.606614,54.843267]}},{"@id":"https://w3id.org/coal%20maps25.08.23%20-%20Sheet1/c1868eb0-db2d-4e62-a860-35fc221999e2","type":"Feature","properties":{"title":"1834 - List of Collieries on the Tyne and their prices in September 1834, including the prices of Walker Colliery","url":"https://thecommonroom.org.uk/collection/collieries-on-the-tyne-and-coal-prices-16081/page-457-26910/#collection-gallery"},"geometry":{"type":"Point","coordinates":[-1.5427555,54.96985]}},{"@id":"https://w3id.org/coal%20maps25.08.23%20-%20Sheet1/2ab59105-9569-4aaf-ac7e-8c64816f1527","type":"Feature","properties":{"title":"1834 - List of Collieries on the Tyne and their prices in September 1834, including the prices of Walbottle Colliery","url":"https://thecommonroom.org.uk/collection/collieries-on-the-tyne-and-coal-prices-16081/page-457-26910/#collection-gallery"},"geometry":{"type":"Point","coordinates":[-1.7383515,54.989928]}},{"@id":"https://w3id.org/coal%20maps25.08.23%20-%20Sheet1/59bebf3e-4c2a-42a4-851b-3ae56fb8bcca","type":"Feature","properties":{"title":"1834 - List of Collieries on the Tyne and their prices in September 1834, including the prices of Willington Colliery","url":"https://thecommonroom.org.uk/collection/collieries-on-the-tyne-and-coal-prices-16081/page-457-26910/#collection-gallery"},"geometry":{"type":"Point","coordinates":[-1.6919675,54.701292]}},{"@id":"https://w3id.org/coal%20maps25.08.23%20-%20Sheet1/acda40c3-706d-4f70-9fa9-3246a4e4e1dd","type":"Feature","properties":{"title":"1834 - List of Collieries on the Tyne and their prices in September 1834, including the prices of Wideopen Colliery","url":"https://thecommonroom.org.uk/collection/collieries-on-the-tyne-and-coal-prices-16081/page-457-26910/#collection-gallery"},"geometry":{"type":"Point","coordinates":[-1.6180129,55.0459]}},{"@id":"https://w3id.org/coal%20maps25.08.23%20-%20Sheet1/42123ff3-654b-4efb-b16d-57be3e5c111a","type":"Feature","properties":{"title":"1834 - List of Collieries on the Tyne and their prices in September 1834, including the prices of Wylam Colliery","url":"https://thecommonroom.org.uk/collection/collieries-on-the-tyne-and-coal-prices-16081/page-457-26910/#collection-gallery"},"geometry":{"type":"Point","coordinates":[-1.8265635,54.9740905]}},{"@id":"https://w3id.org/coal%20maps25.08.23%20-%20Sheet1/767e4679-9b9e-48b6-ad53-094e65ed21f5","type":"Feature","properties":{"title":"1835 - Account of Coals at London Market including their prices. Medomsley Colliery is featured on the list. ","url":"https://thecommonroom.org.uk/collection/coals-at-london-market-16085/page-461-26914/#collection-gallery"},"geometry":{"type":"Point","coordinates":[-1.8223824,54.877032]}},{"@id":"https://w3id.org/coal%20maps25.08.23%20-%20Sheet1/e05b5e19-1517-4d84-8e1b-b000fc4accb7","type":"Feature","properties":{"title":"1835 - Account of Coals at London Market including their prices. Stormont Main Colliery is featured on the list. ","url":"https://thecommonroom.org.uk/collection/coals-at-london-market-16085/page-461-26914/#collection-gallery"},"geometry":{"type":"Point","coordinates":[-1.5711668,54.926083]}},{"@id":"https://w3id.org/coal%20maps25.08.23%20-%20Sheet1/e8287653-ae86-4835-836b-22a505253bf9","type":"Feature","properties":{"title":"1835 - A letter from the Editor of the Newcastle Journal regarding the Morpeth Railroad and the Coal Trade","url":"https://thecommonroom.org.uk/collection/morpeth-railroad-and-the-coal-trade-16087/page-463-464-26916/"},"geometry":{"type":"Point","coordinates":[-1.683159,55.16226]}},{"@id":"https://w3id.org/coal%20maps25.08.23%20-%20Sheet1/10202d50-c8bd-4da5-8993-48de8bd478b3","type":"Feature","properties":{"title":"1835 - Account of Coals at London Market including their prices. Bradley Colliery is featured on the list. ","url":"https://thecommonroom.org.uk/collection/coals-at-london-market-16085/page-461-26914/#collection-gallery"},"geometry":{"type":"Point","coordinates":[-1.8085001,54.859811]}},{"@id":"https://w3id.org/coal%20maps25.08.23%20-%20Sheet1/2fc6b698-5ca4-440d-8620-adde7a83406b","type":"Feature","properties":{"title":"1835 - Account of Coals at London Market including their prices. Ellison Low Main (sometimes reffered to as Sheriff's Hill)is featured on the list. ","url":"https://thecommonroom.org.uk/collection/coals-at-london-market-16085/page-461-26914/#collection-gallery"},"geometry":{"type":"Point","coordinates":[-1.6006493,54.933246]}},{"@id":"https://w3id.org/coal%20maps25.08.23%20-%20Sheet1/1c0c4cc2-1d38-439e-a59a-f5b026f8b551","type":"Feature","properties":{"title":"1835 - Account of Coals at London Market including their prices. East Percy Colliery is featured on the list. ","url":"https://thecommonroom.org.uk/collection/coals-at-london-market-16085/page-461-26914/#collection-gallery"},"geometry":{"type":"Point","coordinates":[-1.49026,55.004646]}},{"@id":"https://w3id.org/coal%20maps25.08.23%20-%20Sheet1/f181dac5-0bab-424f-ab8f-f4f36768a346","type":"Feature","properties":{"title":"1835 - Account of Coals at London Market including their prices. Felling Colliery is featured on the list. ","url":"https://thecommonroom.org.uk/collection/coals-at-london-market-16085/page-461-26914/#collection-gallery"},"geometry":{"type":"Point","coordinates":[-1.5721357,54.955364]}},{"@id":"https://w3id.org/coal%20maps25.08.23%20-%20Sheet1/0e4a7f3d-9ea6-4d78-af28-c437540841c8","type":"Feature","properties":{"title":"1835 - Account of Coals at London Market including their prices. Garesfield Colliery is featured on the list. ","url":"https://thecommonroom.org.uk/collection/coals-at-london-market-16085/page-461-26914/#collection-gallery"},"geometry":{"type":"Point","coordinates":[-1.7839821,54.932416]}},{"@id":"https://w3id.org/coal%20maps25.08.23%20-%20Sheet1/8d8ff813-2b4b-4026-988c-451a5c333712","type":"Feature","properties":{"title":"1835 - Account of Coals at London Market including their prices. Hebburn Colliery is featured on the list. ","url":"https://thecommonroom.org.uk/collection/coals-at-london-market-16085/page-461-26914/#collection-gallery"},"geometry":{"type":"Point","coordinates":[-1.5102967,54.98262]}},{"@id":"https://w3id.org/coal%20maps25.08.23%20-%20Sheet1/688416a0-cc94-4f4d-8910-e5e54ed862ac","type":"Feature","properties":{"title":"1835 - Account of Coals at London Market including their prices. Hollywell Colliery is featured on the list. ","url":"https://thecommonroom.org.uk/collection/coals-at-london-market-16085/page-461-26914/#collection-gallery"},"geometry":{"type":"Point","coordinates":[-1.5145528,55.067601]}},{"@id":"https://w3id.org/coal%20maps25.08.23%20-%20Sheet1/001c2e57-90a7-49e1-964d-18822c50ea36","type":"Feature","properties":{"title":"1835 - Account of Coals at London Market including their prices. Redheugh Colliery is featured on the list. ","url":"https://thecommonroom.org.uk/collection/coals-at-london-market-16085/page-461-26914/#collection-gallery"},"geometry":{"type":"Point","coordinates":[-1.6190847,54.957586]}},{"@id":"https://w3id.org/coal%20maps25.08.23%20-%20Sheet1/3e5eda2e-1d4a-4067-80e5-b04b84800a46","type":"Feature","properties":{"title":"1835 - Account of Coals at London Market including their prices. Pelaw Colliery is featured on the list. ","url":"https://thecommonroom.org.uk/collection/coals-at-london-market-16085/page-461-26914/#collection-gallery"},"geometry":{"type":"Point","coordinates":[-1.5891288,54.864561]}},{"@id":"https://w3id.org/coal%20maps25.08.23%20-%20Sheet1/74bde075-88eb-46fc-a183-fc34a6114b80","type":"Feature","properties":{"title":"1835 - Account of Coals at London Market including their prices. Pontop Colliery is featured on the list. ","url":"https://thecommonroom.org.uk/collection/coals-at-london-market-16085/page-461-26914/#collection-gallery"},"geometry":{"type":"Point","coordinates":[-1.747836,54.860366]}},{"@id":"https://w3id.org/coal%20maps25.08.23%20-%20Sheet1/bfd24f30-3b6b-4d36-98e7-2a733f951617","type":"Feature","properties":{"title":"1835 - Account of Coals at London Market including their prices. Shipcote Colliery is featured on the list. ","url":"https://thecommonroom.org.uk/collection/coals-at-london-market-16085/page-461-26914/#collection-gallery"},"geometry":{"type":"Point","coordinates":[-1.5961291,54.959166]}},{"@id":"https://w3id.org/coal%20maps25.08.23%20-%20Sheet1/6e02c68a-948e-4e91-a6fb-62090c5861ee","type":"Feature","properties":{"title":"1835 - Account of Coals at London Market including their prices. Hartley Colliery is featured on the list. ","url":"https://thecommonroom.org.uk/collection/coals-at-london-market-16085/page-461-26914/#collection-gallery"},"geometry":{"type":"Point","coordinates":[-1.514167,55.083889]}},{"@id":"https://w3id.org/coal%20maps25.08.23%20-%20Sheet1/6c6e337b-8904-41d7-a1e5-3fc496904db7","type":"Feature","properties":{"title":"1835 - Account of Coals at London Market including their prices. Willington Colliery is featured on the list. ","url":"https://thecommonroom.org.uk/collection/coals-at-london-market-16085/page-461-26914/#collection-gallery"},"geometry":{"type":"Point","coordinates":[-1.6919675,54.701292]}},{"@id":"https://w3id.org/coal%20maps25.08.23%20-%20Sheet1/ef87affa-fb97-4869-9c9e-a859443a4ee8","type":"Feature","properties":{"title":"1835 - Account of Coals at London Market including their prices. Wylam Colliery is featured on the list. ","url":"https://thecommonroom.org.uk/collection/coals-at-london-market-16085/page-461-26914/#collection-gallery"},"geometry":{"type":"Point","coordinates":[-1.8265635,54.9740905]}},{"@id":"https://w3id.org/coal%20maps25.08.23%20-%20Sheet1/a241eb75-af82-449c-8742-06cf23cdf3a0","type":"Feature","properties":{"title":"1835 - Account of Coals at London Market including their prices. Wallsend Colliery is featured on the list. ","url":"https://thecommonroom.org.uk/collection/coals-at-london-market-16085/page-461-26914/#collection-gallery"},"geometry":{"type":"Point","coordinates":[-1.5170374,54.991228]}},{"@id":"https://w3id.org/coal%20maps25.08.23%20-%20Sheet1/51a6a4ff-f212-4af6-97c8-794471ee499d","type":"Feature","properties":{"title":"1835 - Account of Coals at London Market including their prices. Waldridge Colliery is featured on the list. ","url":"https://thecommonroom.org.uk/collection/coals-at-london-market-16085/page-461-26914/#collection-gallery"},"geometry":{"type":"Point","coordinates":[-1.610895,-1.610895]}},{"@id":"https://w3id.org/coal%20maps25.08.23%20-%20Sheet1/e08e6da4-849f-4466-b759-c026afc2090c","type":"Feature","properties":{"title":"1835 - Account of Coals at London Market including their prices. Howden Colliery is featured on the list. ","url":"https://thecommonroom.org.uk/collection/coals-at-london-market-16085/page-461-26914/#collection-gallery"},"geometry":{"type":"Point","coordinates":[-1.484939,54.992157]}},{"@id":"https://w3id.org/coal%20maps25.08.23%20-%20Sheet1/a327f6f4-776b-4419-bb40-2002d480632b","type":"Feature","properties":{"title":"1835 - Account of Coals at London Market including their prices. Gosforth Colliery is featured on the list. ","url":"https://thecommonroom.org.uk/collection/coals-at-london-market-16085/page-461-26914/#collection-gallery"},"geometry":{"type":"Point","coordinates":[-1.6043975,55.007719]}},{"@id":"https://w3id.org/coal%20maps25.08.23%20-%20Sheet1/4cf7887f-4441-475c-bdaa-d48ecd4f8e87","type":"Feature","properties":{"title":"1835 - Account of Coals at London Market including their prices. Heaton Colliery is featured on the list. ","url":"https://thecommonroom.org.uk/collection/coals-at-london-market-16085/page-461-26914/#collection-gallery"},"geometry":{"type":"Point","coordinates":[-1.5883318,54.98866]}},{"@id":"https://w3id.org/coal%20maps25.08.23%20-%20Sheet1/b9e4dcf6-738b-421e-b5b4-74fef6494ce7","type":"Feature","properties":{"title":"1835 - Account of Coals at London Market including their prices. Hilda Colliery is featured on the list. ","url":"https://thecommonroom.org.uk/collection/coals-at-london-market-16085/page-461-26914/#collection-gallery"},"geometry":{"type":"Point","coordinates":[-1.4352215,54.994417]}},{"@id":"https://w3id.org/coal%20maps25.08.23%20-%20Sheet1/aa808df5-855c-487e-9afe-5e966a6ab0b7","type":"Feature","properties":{"title":"1835 - Account of Coals at London Market including their prices. Lanchester Colliery is featured on the list. ","url":"https://thecommonroom.org.uk/collection/coals-at-london-market-16085/page-461-26914/#collection-gallery"},"geometry":{"type":"Point","coordinates":[-1.7594832,54.827185]}},{"@id":"https://w3id.org/coal%20maps25.08.23%20-%20Sheet1/4d1f03c5-a1f9-4c42-993c-3ab165c9c625","type":"Feature","properties":{"title":"1835 - Account of Coals at London Market including their prices. Walker Colliery is featured on the list. ","url":"https://thecommonroom.org.uk/collection/coals-at-london-market-16085/page-461-26914/#collection-gallery"},"geometry":{"type":"Point","coordinates":[-1.5427555,54.96985]}},{"@id":"https://w3id.org/coal%20maps25.08.23%20-%20Sheet1/99550778-cd72-4d97-a00c-a07f8452c154","type":"Feature","properties":{"title":"1835 - Account of Coals at London Market including their prices. Killingworth Colliery is featured on the list. ","url":"https://thecommonroom.org.uk/collection/coals-at-london-market-16085/page-461-26914/#collection-gallery"},"geometry":{"type":"Point","coordinates":[-1.5540852,55.030073]}},{"@id":"https://w3id.org/coal%20maps25.08.23%20-%20Sheet1/c54abe92-58a1-4e4c-aa69-c53bffd51491","type":"Feature","properties":{"title":"1835 - Account of Coals at London Market including their prices. Peareth Colliery is featured on the list. ","url":"https://thecommonroom.org.uk/collection/coals-at-london-market-16085/page-461-26914/#collection-gallery"},"geometry":{"type":"Point","coordinates":[-1.5196812,54.877022]}},{"@id":"https://w3id.org/coal%20maps25.08.23%20-%20Sheet1/b98079f4-2745-458e-9247-28cce25900b2","type":"Feature","properties":{"title":"1835 - Account of Coals at London Market including their prices. Chirton Colliery is featured on the list. ","url":"https://thecommonroom.org.uk/collection/coals-at-london-market-16085/page-461-26914/#collection-gallery"},"geometry":{"type":"Point","coordinates":[-1.4540994,55.006194]}},{"@id":"https://w3id.org/coal%20maps25.08.23%20-%20Sheet1/e5a2d9f7-0404-48ab-ba7a-061514386181","type":"Feature","properties":{"title":"1835 - Account of Coals at London Market including their prices. Russell's Wallsend Pit is featured on the list. ","url":"https://thecommonroom.org.uk/collection/coals-at-london-market-16085/page-461-26914/#collection-gallery"},"geometry":{"type":"Point","coordinates":[-1.5171472,54.991193]}},{"@id":"https://w3id.org/coal%20maps25.08.23%20-%20Sheet1/3c4f7012-d0ea-4089-bad2-a5149cda05fc","type":"Feature","properties":{"title":"1835 - Account of Coals at London Market including their prices. Eden Main Pit is featured on the list. ","url":"https://thecommonroom.org.uk/collection/coals-at-london-market-16085/page-461-26914/#collection-gallery"},"geometry":{"type":"Point","coordinates":[-1.5171472,54.991193]}},{"@id":"https://w3id.org/coal%20maps25.08.23%20-%20Sheet1/9b12c36f-dd9f-4bb0-8601-4dc1aebd6993","type":"Feature","properties":{"title":"1835 - Account of Coals at London Market including their prices. Hetton Colliery is featured on the list. ","url":"https://thecommonroom.org.uk/collection/coals-at-london-market-16085/page-461-26914/#collection-gallery"},"geometry":{"type":"Point","coordinates":[-1.4420939,54.816481]}},{"@id":"https://w3id.org/coal%20maps25.08.23%20-%20Sheet1/36de242c-3c56-4c11-a66f-4dcf71a17c03","type":"Feature","properties":{"title":"1835 - Account of Coals at London Market including their prices. Lambton Colliery is featured on the list. ","url":"https://thecommonroom.org.uk/collection/coals-at-london-market-16085/page-461-26914/#collection-gallery"},"geometry":{"type":"Point","coordinates":[-1.506311,54.850099]}},{"@id":"https://w3id.org/coal%20maps25.08.23%20-%20Sheet1/2124a439-f199-4d6b-9c85-415b3b4fc644","type":"Feature","properties":{"title":"1835 - Account of Coals at London Market including their prices. Haswell Colliery is featured on the list. ","url":"https://thecommonroom.org.uk/collection/coals-at-london-market-16085/page-461-26914/#collection-gallery"},"geometry":{"type":"Point","coordinates":[-1.420204,54.773719]}},{"@id":"https://w3id.org/coal%20maps25.08.23%20-%20Sheet1/b4de3863-9590-4202-a407-44f6590eb48d","type":"Feature","properties":{"title":"1835 - Account of Coals at London Market including their prices. Deanery Colliery is featured on the list. ","url":"https://thecommonroom.org.uk/collection/coals-at-london-market-16085/page-461-26914/#collection-gallery"},"geometry":{"type":"Point","coordinates":[-1.6582245,54.643166]}},{"@id":"https://w3id.org/coal%20maps25.08.23%20-%20Sheet1/c47ead0d-8c5b-4a4f-91b2-8c159087bce2","type":"Feature","properties":{"title":"1835 - Account of Coals at London Market including their prices. St Helen's Colliery is featured on the list. ","url":"https://thecommonroom.org.uk/collection/coals-at-london-market-16085/page-461-26914/#collection-gallery"},"geometry":{"type":"Point","coordinates":[-1.6978546,54.637744]}},{"@id":"https://w3id.org/coal%20maps25.08.23%20-%20Sheet1/bf12f68a-be1b-45ce-8484-036ff688da28","type":"Feature","properties":{"title":"1835 - Account of Coals at London Market including their prices. Tanfield Colliery is featured on the list. ","url":"https://thecommonroom.org.uk/collection/coals-at-london-market-16085/page-461-26914/#collection-gallery"},"geometry":{"type":"Point","coordinates":[-1.6990648,54.891204]}},{"@id":"https://w3id.org/coal%20maps25.08.23%20-%20Sheet1/4b49941e-4c3b-4189-bf28-3667ec407725","type":"Feature","properties":{"title":"1835 - Account of Coals at London Market including their prices. Adelaide Colliery is featured on the list. ","url":"https://thecommonroom.org.uk/collection/coals-at-london-market-16085/page-461-26914/#collection-gallery"},"geometry":{"type":"Point","coordinates":[-1.6637188,54.643945]}},{"@id":"https://w3id.org/coal%20maps25.08.23%20-%20Sheet1/fadce690-5169-4651-948f-595b01341326","type":"Feature","properties":{"title":"1835 - Account of Coals at London Market including their prices. Butterknowle Colliery is featured on the list. ","url":"https://thecommonroom.org.uk/collection/coals-at-london-market-16085/page-461-26914/#collection-gallery"},"geometry":{"type":"Point","coordinates":[-1.8342394,54.626325]}},{"@id":"https://w3id.org/coal%20maps25.08.23%20-%20Sheet1/bba71aad-cfd7-4705-a6de-52b1d3c96759","type":"Feature","properties":{"title":"1835 - Account of Coals at London Market including their prices. Gordon House Colliery is featured on the list. ","url":"https://thecommonroom.org.uk/collection/coals-at-london-market-16085/page-461-26914/#collection-gallery"},"geometry":{"type":"Point","coordinates":[-1.7986778,54.61369]}},{"@id":"https://w3id.org/coal%20maps25.08.23%20-%20Sheet1/d2d380a7-52ef-40b6-b39c-2ae669a4c1ac","type":"Feature","properties":{"title":"1835 - Account of Coals at London Market including their prices. South Durham Colliery is featured on the list. ","url":"https://thecommonroom.org.uk/collection/coals-at-london-market-16085/page-461-26914/#collection-gallery"},"geometry":{"type":"Point","coordinates":[-1.629722222,54.64638889]}},{"@id":"https://w3id.org/coal%20maps25.08.23%20-%20Sheet1/7723afdb-d663-469e-88fb-5182bfc5c66d","type":"Feature","properties":{"title":"1835 - Account of Coals at London Market including their prices. North Tees Colliery is featured on the list. ","url":"https://thecommonroom.org.uk/collection/coals-at-london-market-16085/page-461-26914/#collection-gallery"},"geometry":{"type":"Point","coordinates":[-1.8115319,54.542634]}},{"@id":"https://w3id.org/coal%20maps25.08.23%20-%20Sheet1/880bd0b5-5409-4315-92ba-21ade459773b","type":"Feature","properties":{"title":"1835 - Account of Coals at London Market including their prices. West Hetton Colliery is featured on the list. ","url":"https://thecommonroom.org.uk/collection/coals-at-london-market-16085/page-461-26914/#collection-gallery"},"geometry":{"type":"Point","coordinates":[-1.4999758,54.728754]}},{"@id":"https://w3id.org/coal%20maps25.08.23%20-%20Sheet1/2aaa83ac-9057-4959-8a6e-667d605f0b75","type":"Feature","properties":{"title":"1835 - Account of Coals at London Market including their prices. Victoria Colliery is featured on the list. ","url":"https://thecommonroom.org.uk/collection/coals-at-london-market-16085/page-461-26914/#collection-gallery"},"geometry":{"type":"Point","coordinates":[-1.8250156,54.610136]}},{"@id":"https://w3id.org/coal%20maps25.08.23%20-%20Sheet1/4a1ce9cd-9999-4a58-8f10-ac528351f70d","type":"Feature","properties":{"title":"1835 - Account of Coals at London Market including their prices. Cowpen Colliery is featured on the list. ","url":"https://thecommonroom.org.uk/collection/coals-at-london-market-16085/page-461-26914/#collection-gallery"},"geometry":{"type":"Point","coordinates":[-1.5315941,55.119509]}},{"@id":"https://w3id.org/coal%20maps25.08.23%20-%20Sheet1/4d0f28c2-4ff0-420a-ad8f-923707cedc07","type":"Feature","properties":{"title":"1835 - Account of Coals at London Market including their prices. Cowpen Colliery is featured on the list. ","url":"https://thecommonroom.org.uk/collection/coals-at-london-market-16085/page-461-26914/#collection-gallery"},"geometry":{"type":"Point","coordinates":[-1.514167,55.083889]}},{"@id":"https://w3id.org/coal%20maps25.08.23%20-%20Sheet1/9be4b0df-c551-4fb1-84a5-cc563be1d0a8","type":"Feature","properties":{"title":"1835 - Account of Coals at London Market including their prices. Warbro Park Colliery is featured on the list. ","url":"https://thecommonroom.org.uk/collection/coals-at-london-market-16085/page-461-26914/#collection-gallery"},"geometry":{"type":"Point","coordinates":[-1.46646,53.51773]}},{"@id":"https://w3id.org/coal%20maps25.08.23%20-%20Sheet1/23340166-a9c0-4289-b070-e452da26ff6f","type":"Feature","properties":{"title":"1835 - Account of Coals at London Market including their prices. Netherton Colliery's Howard Pit is featured on the list. ","url":"https://thecommonroom.org.uk/collection/coals-at-london-market-16085/page-461-26914/#collection-gallery"},"geometry":{"type":"Point","coordinates":[-1.6263354,55.137053]}},{"@id":"https://w3id.org/coal%20maps25.08.23%20-%20Sheet1/08822073-e62d-4f93-a894-01d0a093228c","type":"Feature","properties":{"title":"1835 - Account of Coals at London Market including their prices. Silkstone Colliery's Howard Pit is featured on the list. ","url":"https://thecommonroom.org.uk/collection/coals-at-london-market-16085/page-461-26914/#collection-gallery"},"geometry":{"type":"Point","coordinates":[-1.5642989,53.543188]}},{"@id":"https://w3id.org/coal%20maps25.08.23%20-%20Sheet1/e6c6ebe1-3752-4316-aa7d-14afb14e3de5","type":"Feature","properties":{"title":"1835 - Account of Coals at London Market including their prices. Gawber Hall Colliery is featured on the list. ","url":"https://thecommonroom.org.uk/collection/coals-at-london-market-16085/page-461-26914/#collection-gallery"},"geometry":{"type":"Point","coordinates":[-1.4962133,53.542921]}},{"@id":"https://w3id.org/coal%20maps25.08.23%20-%20Sheet1/595524b0-577e-4fe7-82fa-33d724960336","type":"Feature","properties":{"title":"1835 - Account of Coals at London Market including their prices. Tranent Colliery is featured on the list. ","url":"https://thecommonroom.org.uk/collection/coals-at-london-market-16085/page-461-26914/#collection-gallery"},"geometry":{"type":"Point","coordinates":[-2.9387449,55.94361]}},{"@id":"https://w3id.org/coal%20maps25.08.23%20-%20Sheet1/ff045bf8-bcee-43e4-812f-243c45871284","type":"Feature","properties":{"title":"1835 - Account of Coals at London Market including their prices. Flockton Colliery is featured on the list. ","url":"https://thecommonroom.org.uk/collection/coals-at-london-market-16085/page-461-26914/#collection-gallery"},"geometry":{"type":"Point","coordinates":[-1.631,53.632]}},{"@id":"https://w3id.org/coal%20maps25.08.23%20-%20Sheet1/55ae9379-5dec-4739-a673-064d09fc8fd1","type":"Feature","properties":{"title":"1831 - Handbill giving an account of the meeting of pitmen on the Town Moor where they voiced complaints abour working conditions and wages","url":"https://thecommonroom.org.uk/collection/handbill-giving-an-account-of-the-meeting-of-pitmen-on-the-town-moor-16404/page-218-219-27234/#collection-gallery"},"geometry":{"type":"Point","coordinates":[-1.633,54.992]}},{"@id":"https://w3id.org/coal%20maps25.08.23%20-%20Sheet1/bf6b1d06-64fc-4e93-8914-2813dc245f5d","type":"Feature","properties":{"title":"1837 - A document listing the quantity of coal shipped from English, Scottish and Irish ports in 1836 and 1837. Port of Dover appears on the list","url":"https://thecommonroom.org.uk/collection/coal-shipped-from-english-scottish-and-irish-ports-16113/page-499-504-26942/#collection-gallery"},"geometry":{"type":"Point","coordinates":[1.329444,51.119167]}},{"@id":"https://w3id.org/coal%20maps25.08.23%20-%20Sheet1/a1d8d3d8-3f4e-4559-babf-327eb3b278a6","type":"Feature","properties":{"title":"1837 - A document listing the quantity of coal shipped from English, Scottish and Irish ports in 1836 and 1837. Shoreham Port ppears on the list","url":"https://thecommonroom.org.uk/collection/coal-shipped-from-english-scottish-and-irish-ports-16113/page-499-504-26942/#collection-gallery"},"geometry":{"type":"Point","coordinates":[-0.2381705,50.831132]}},{"@id":"https://w3id.org/coal%20maps25.08.23%20-%20Sheet1/d9a15b76-094e-4f31-bef3-270caec44ca5","type":"Feature","properties":{"title":"1837 - A document listing the quantity of coal shipped from English, Scottish and Irish ports in 1836 and 1837. Portsmouth Port ppears on the list","url":"https://thecommonroom.org.uk/collection/coal-shipped-from-english-scottish-and-irish-ports-16113/page-499-504-26942/#collection-gallery"},"geometry":{"type":"Point","coordinates":[-1.090738,50.812037]}},{"@id":"https://w3id.org/coal%20maps25.08.23%20-%20Sheet1/8ef52b70-e2fc-4ccb-b7e6-6afab13f4369","type":"Feature","properties":{"title":"1837 - A document listing the quantity of coal shipped from English, Scottish and Irish ports in 1836 and 1837. Poole Port ppears on the list","url":"https://thecommonroom.org.uk/collection/coal-shipped-from-english-scottish-and-irish-ports-16113/page-499-504-26942/#collection-gallery"},"geometry":{"type":"Point","coordinates":[-1.99248,50.7096]}},{"@id":"https://w3id.org/coal%20maps25.08.23%20-%20Sheet1/f85d8503-ff1c-424b-9ba4-48b2365cb039","type":"Feature","properties":{"title":"1837 - A document listing the quantity of coal shipped from English, Scottish and Irish ports in 1836 and 1837. Dartmouth Harbour ppears on the list","url":"https://thecommonroom.org.uk/collection/coal-shipped-from-english-scottish-and-irish-ports-16113/page-499-504-26942/#collection-gallery"},"geometry":{"type":"Point","coordinates":[-3.577778,50.351667]}},{"@id":"https://w3id.org/coal%20maps25.08.23%20-%20Sheet1/d49758cb-4866-4cfb-94e8-b7b5c5635b84","type":"Feature","properties":{"title":"1837 - A document listing the quantity of coal shipped from English, Scottish and Irish ports in 1836 and 1837. Plymouth Harbour ppears on the list","url":"https://thecommonroom.org.uk/collection/coal-shipped-from-english-scottish-and-irish-ports-16113/page-499-504-26942/#collection-gallery"},"geometry":{"type":"Point","coordinates":[-4.15434,50.3678]}},{"@id":"https://w3id.org/coal%20maps25.08.23%20-%20Sheet1/ce2736ee-fe9b-4429-9836-43d6dde11c03","type":"Feature","properties":{"title":"1837 - A document listing the quantity of coal shipped from English, Scottish and Irish ports in 1836 and 1837. Falmouth Port ppears on the list","url":"https://thecommonroom.org.uk/collection/coal-shipped-from-english-scottish-and-irish-ports-16113/page-499-504-26942/#collection-gallery"},"geometry":{"type":"Point","coordinates":[-5.05566,50.1523]}},{"@id":"https://w3id.org/coal%20maps25.08.23%20-%20Sheet1/c724c40b-574e-43a9-b9b8-52a39ff882eb","type":"Feature","properties":{"title":"1837 - A document listing the quantity of coal shipped from English, Scottish and Irish ports in 1836 and 1837. Port of Bristol ppears on the list","url":"https://thecommonroom.org.uk/collection/coal-shipped-from-english-scottish-and-irish-ports-16113/page-499-504-26942/#collection-gallery"},"geometry":{"type":"Point","coordinates":[-2.71621,51.50329]}},{"@id":"https://w3id.org/coal%20maps25.08.23%20-%20Sheet1/b567df96-916b-4633-a32e-ef7c931f8371","type":"Feature","properties":{"title":"1837 - A document listing the quantity of coal shipped from English, Scottish and Irish ports in 1836 and 1837. Gloucester Harbour appears on the list","url":"https://thecommonroom.org.uk/collection/coal-shipped-from-english-scottish-and-irish-ports-16113/page-499-504-26942/#collection-gallery"},"geometry":{"type":"Point","coordinates":[-2.251944,51.8625]}},{"@id":"https://w3id.org/coal%20maps25.08.23%20-%20Sheet1/05a6eb4c-4bbe-444e-9a74-0a76d26a33c1","type":"Feature","properties":{"title":"1837 - A document listing the quantity of coal shipped from English, Scottish and Irish ports in 1836 and 1837. The port of Cardiff (Cardiff Docks) appears on the list","url":"https://thecommonroom.org.uk/collection/coal-shipped-from-english-scottish-and-irish-ports-16113/page-499-504-26942/#collection-gallery"},"geometry":{"type":"Point","coordinates":[-3.15382,51.46533]}},{"@id":"https://w3id.org/coal%20maps25.08.23%20-%20Sheet1/ea88464c-2415-418f-b93f-c0e3f9b5f20e","type":"Feature","properties":{"title":"1837 - A document listing the quantity of coal shipped from English, Scottish and Irish ports in 1836 and 1837. The port of Newport appears on the list","url":"https://thecommonroom.org.uk/collection/coal-shipped-from-english-scottish-and-irish-ports-16113/page-499-504-26942/#collection-gallery"},"geometry":{"type":"Point","coordinates":[-2.9846617,51.565256]}},{"@id":"https://w3id.org/coal%20maps25.08.23%20-%20Sheet1/224f06ef-6855-434e-9a74-35c803bd3b47","type":"Feature","properties":{"title":"1837 - A document listing the quantity of coal shipped from English, Scottish and Irish ports in 1836 and 1837. Swansea Port appears on the list","url":"https://thecommonroom.org.uk/collection/coal-shipped-from-english-scottish-and-irish-ports-16113/page-499-504-26942/#collection-gallery"},"geometry":{"type":"Point","coordinates":[-3.91844,51.61646]}},{"@id":"https://w3id.org/coal%20maps25.08.23%20-%20Sheet1/f183e9e9-3f34-4207-8ee7-3693f93d2772","type":"Feature","properties":{"title":"1837 - A document listing the quantity of coal shipped from English, Scottish and Irish ports in 1836 and 1837. Llanelli (or Llanelly) docks appears on the list","url":"https://thecommonroom.org.uk/collection/coal-shipped-from-english-scottish-and-irish-ports-16113/page-499-504-26942/#collection-gallery"},"geometry":{"type":"Point","coordinates":[-4.17322,51.67522]}},{"@id":"https://w3id.org/coal%20maps25.08.23%20-%20Sheet1/6156231d-4ca1-4ce9-912e-d281d4d11fcc","type":"Feature","properties":{"title":"1837 - A document listing the quantity of coal shipped from English, Scottish and Irish ports in 1836 and 1837. Milford Port appears on the list","url":"https://thecommonroom.org.uk/collection/coal-shipped-from-english-scottish-and-irish-ports-16113/page-499-504-26942/#collection-gallery"},"geometry":{"type":"Point","coordinates":[-5.052376,51.70778]}},{"@id":"https://w3id.org/coal%20maps25.08.23%20-%20Sheet1/52464ede-09c4-4791-a54c-0af93e83ba6c","type":"Feature","properties":{"title":"1837 - A document listing the quantity of coal shipped from English, Scottish and Irish ports in 1836 and 1837. Chester Old Port appears on the list","url":"https://thecommonroom.org.uk/collection/coal-shipped-from-english-scottish-and-irish-ports-16113/page-499-504-26942/#collection-gallery"},"geometry":{"type":"Point","coordinates":[-2.9023864,53.190852]}},{"@id":"https://w3id.org/coal%20maps25.08.23%20-%20Sheet1/b7088d64-8706-4162-b20f-fdf0cdf8f772","type":"Feature","properties":{"title":"1837 - A document listing the quantity of coal shipped from English, Scottish and Irish ports in 1836 and 1837. Liverpool Port appears on the list","url":"https://thecommonroom.org.uk/collection/coal-shipped-from-english-scottish-and-irish-ports-16113/page-499-504-26942/#collection-gallery"},"geometry":{"type":"Point","coordinates":[-2.996,53.406]}},{"@id":"https://w3id.org/coal%20maps25.08.23%20-%20Sheet1/4d177939-7f33-4820-b8f1-78c9ed1aec6e","type":"Feature","properties":{"title":"1837 - A document listing the quantity of coal shipped from English, Scottish and Irish ports in 1836 and 1837. Lancaster Port appears on the list","url":"https://thecommonroom.org.uk/collection/coal-shipped-from-english-scottish-and-irish-ports-16113/page-499-504-26942/#collection-gallery"},"geometry":{"type":"Point","coordinates":[-2.8499743,53.998822]}},{"@id":"https://w3id.org/coal%20maps25.08.23%20-%20Sheet1/801a116c-dd48-4a73-bbd6-0d26e469ba45","type":"Feature","properties":{"title":"1837 - A document listing the quantity of coal shipped from English, Scottish and Irish ports in 1836 and 1837. Whitehaven Port appears on the list","url":"https://thecommonroom.org.uk/collection/coal-shipped-from-english-scottish-and-irish-ports-16113/page-499-504-26942/#collection-gallery"},"geometry":{"type":"Point","coordinates":[-3.593807,54.55091]}},{"@id":"https://w3id.org/coal%20maps25.08.23%20-%20Sheet1/e41d4633-350b-4f35-9e08-2dccf0840236","type":"Feature","properties":{"title":"1837 - A document listing the quantity of coal shipped from English, Scottish and Irish ports in 1836 and 1837. Port of Carlise appears on the list","url":"https://thecommonroom.org.uk/collection/coal-shipped-from-english-scottish-and-irish-ports-16113/page-499-504-26942/#collection-gallery"},"geometry":{"type":"Point","coordinates":[-3.1865323,54.948652]}},{"@id":"https://w3id.org/coal%20maps25.08.23%20-%20Sheet1/3cd4c379-8666-49be-8f43-40398d904898","type":"Feature","properties":{"title":"1837 - A document listing the quantity of coal shipped from English, Scottish and Irish ports in 1836 and 1837. Port of Berwick appears on the list","url":"https://thecommonroom.org.uk/collection/coal-shipped-from-english-scottish-and-irish-ports-16113/page-499-504-26942/#collection-gallery"},"geometry":{"type":"Point","coordinates":[-2.002389,55.76389]}},{"@id":"https://w3id.org/coal%20maps25.08.23%20-%20Sheet1/e167c695-b8dc-4911-b59d-b6a8aa1fd090","type":"Feature","properties":{"title":"1837 - A document listing the quantity of coal shipped from English, Scottish and Irish ports in 1836 and 1837. Port of Newcastle (now Port of the Tyne) appears on the list","url":"https://thecommonroom.org.uk/collection/coal-shipped-from-english-scottish-and-irish-ports-16113/page-499-504-26942/#collection-gallery"},"geometry":{"type":"Point","coordinates":[-1.4527902,54.992471]}},{"@id":"https://w3id.org/coal%20maps25.08.23%20-%20Sheet1/93a79bbf-42ba-4517-9a12-01f5b2373157","type":"Feature","properties":{"title":"1837 - A document listing the quantity of coal shipped from English, Scottish and Irish ports in 1836 and 1837. Sunderland Port appears on the list","url":"https://thecommonroom.org.uk/collection/coal-shipped-from-english-scottish-and-irish-ports-16113/page-499-504-26942/#collection-gallery"},"geometry":{"type":"Point","coordinates":[-1.381408,54.91129]}},{"@id":"https://w3id.org/coal%20maps25.08.23%20-%20Sheet1/b416b8f0-98cb-4a5a-b5e4-4d5684310d75","type":"Feature","properties":{"title":"1837 - A document listing the quantity of coal shipped from English, Scottish and Irish ports in 1836 and 1837. Stockton Port, which has now closed appears on the list","url":"https://thecommonroom.org.uk/collection/coal-shipped-from-english-scottish-and-irish-ports-16113/page-499-504-26942/#collection-gallery"},"geometry":{"type":"Point","coordinates":[-1.308264,54.56527]}},{"@id":"https://w3id.org/coal%20maps25.08.23%20-%20Sheet1/d267ef33-4c9a-4119-aad1-37f9896f6c3a","type":"Feature","properties":{"title":"1837 - A document listing the quantity of coal shipped from English, Scottish and Irish ports in 1836 and 1837. Hull Port appears on the list","url":"https://thecommonroom.org.uk/collection/coal-shipped-from-english-scottish-and-irish-ports-16113/page-499-504-26942/#collection-gallery"},"geometry":{"type":"Point","coordinates":[-0.2797584,53.74237]}},{"@id":"https://w3id.org/coal%20maps25.08.23%20-%20Sheet1/a738c12a-58e3-45c2-8708-e64c26707bda","type":"Feature","properties":{"title":"1837 - A document listing the quantity of coal shipped from English, Scottish and Irish ports in 1836 and 1837. Goole Port appears on the list","url":"https://thecommonroom.org.uk/collection/coal-shipped-from-english-scottish-and-irish-ports-16113/page-499-504-26942/#collection-gallery"},"geometry":{"type":"Point","coordinates":[-0.8709594,53.69931]}},{"@id":"https://w3id.org/coal%20maps25.08.23%20-%20Sheet1/82787521-4e99-4c44-b2e1-617a927639b9","type":"Feature","properties":{"title":"1837 - A document listing the quantity of coal shipped from English, Scottish and Irish ports in 1836 and 1837. Ipswich Port appears on the list","url":"https://thecommonroom.org.uk/collection/coal-shipped-from-english-scottish-and-irish-ports-16113/page-499-504-26942/#collection-gallery"},"geometry":{"type":"Point","coordinates":[1.158197,52.04032]}},{"@id":"https://w3id.org/coal%20maps25.08.23%20-%20Sheet1/b60a73b1-dd36-4f37-870a-b591647732a1","type":"Feature","properties":{"title":"1837 - A document listing the quantity of coal shipped from English, Scottish and Irish ports in 1836 and 1837. Maldon Port appears on the list","url":"https://thecommonroom.org.uk/collection/coal-shipped-from-english-scottish-and-irish-ports-16113/page-499-504-26942/#collection-gallery"},"geometry":{"type":"Point","coordinates":[-0.6748583333,51.73183333]}},{"@id":"https://w3id.org/coal%20maps25.08.23%20-%20Sheet1/c3b0e357-4afc-4da5-a74e-cb628164147e","type":"Feature","properties":{"title":"1837 - A document listing the quantity of coal shipped from English, Scottish and Irish ports in 1836 and 1837. Port of Leith appears on the list","url":"https://thecommonroom.org.uk/collection/coal-shipped-from-english-scottish-and-irish-ports-16113/page-499-504-26942/#collection-gallery"},"geometry":{"type":"Point","coordinates":[-3.171328,55.98225]}},{"@id":"https://w3id.org/coal%20maps25.08.23%20-%20Sheet1/3d78d7f9-8897-48b1-800d-b31a6ffc7269","type":"Feature","properties":{"title":"1837 - A document listing the quantity of coal shipped from English, Scottish and Irish ports in 1836 and 1837. Borrowstounness (Bo'ness) harbour, which is now closed, appears on the list","url":"https://thecommonroom.org.uk/collection/coal-shipped-from-english-scottish-and-irish-ports-16113/page-499-504-26942/#collection-gallery"},"geometry":{"type":"Point","coordinates":[-3.6102,56.0159]}},{"@id":"https://w3id.org/coal%20maps25.08.23%20-%20Sheet1/432cf9a7-02b5-4144-9609-71dc7a699cc8","type":"Feature","properties":{"title":"1837 - A document listing the quantity of coal shipped from English, Scottish and Irish ports in 1836 and 1837. Port of Grangemouth appears on the list","url":"https://thecommonroom.org.uk/collection/coal-shipped-from-english-scottish-and-irish-ports-16113/page-499-504-26942/#collection-gallery"},"geometry":{"type":"Point","coordinates":[-3.705,56.0285]}},{"@id":"https://w3id.org/coal%20maps25.08.23%20-%20Sheet1/d073c6e0-70fe-4bb0-90fe-82f5496de06d","type":"Feature","properties":{"title":"1837 - A document listing the quantity of coal shipped from English, Scottish and Irish ports in 1836 and 1837. Harbour of Kirkcaldy,  appears on the list","url":"https://thecommonroom.org.uk/collection/coal-shipped-from-english-scottish-and-irish-ports-16113/page-499-504-26942/#collection-gallery"},"geometry":{"type":"Point","coordinates":[-3.150157,56.11389]}},{"@id":"https://w3id.org/coal%20maps25.08.23%20-%20Sheet1/65c424b4-0d35-49f2-acc2-dafdeb36e728","type":"Feature","properties":{"title":"1837 - A document listing the quantity of coal shipped from English, Scottish and Irish ports in 1836 and 1837. Port of Campbeltown , which is now closed, appears on the list","url":"https://thecommonroom.org.uk/collection/coal-shipped-from-english-scottish-and-irish-ports-16113/page-499-504-26942/#collection-gallery"},"geometry":{"type":"Point","coordinates":[-5.60035,55.4255]}},{"@id":"https://w3id.org/coal%20maps25.08.23%20-%20Sheet1/055e7743-3df1-4637-860e-3b9a53c283d7","type":"Feature","properties":{"title":"1837 - A document listing the quantity of coal shipped from English, Scottish and Irish ports in 1836 and 1837. Port of Greenock, appears on the list","url":"https://thecommonroom.org.uk/collection/coal-shipped-from-english-scottish-and-irish-ports-16113/page-499-504-26942/#collection-gallery"},"geometry":{"type":"Point","coordinates":[-4.743073,55.94802]}},{"@id":"https://w3id.org/coal%20maps25.08.23%20-%20Sheet1/472d516e-085b-42d5-96fb-0dbb9ff42b8c","type":"Feature","properties":{"title":"1837 - A document listing the quantity of coal shipped from English, Scottish and Irish ports in 1836 and 1837. Port Glasgow appears on the list","url":"https://thecommonroom.org.uk/collection/coal-shipped-from-english-scottish-and-irish-ports-16113/page-499-504-26942/#collection-gallery"},"geometry":{"type":"Point","coordinates":[-4.682665,55.93628]}},{"@id":"https://w3id.org/coal%20maps25.08.23%20-%20Sheet1/1db586e1-904a-4042-bf7d-ad30d7fad1d8","type":"Feature","properties":{"title":"1837 - A document listing the quantity of coal shipped from English, Scottish and Irish ports in 1836 and 1837. Irvine Harbour appears on the list","url":"https://thecommonroom.org.uk/collection/coal-shipped-from-english-scottish-and-irish-ports-16113/page-499-504-26942/#collection-gallery"},"geometry":{"type":"Point","coordinates":[-4.68444,55.6078]}},{"@id":"https://w3id.org/coal%20maps25.08.23%20-%20Sheet1/36581232-64bd-4b2f-b95a-ab449206d457","type":"Feature","properties":{"title":"1837 - A document listing the quantity of coal shipped from English, Scottish and Irish ports in 1836 and 1837. Port of Ayr appears on the list","url":"https://thecommonroom.org.uk/collection/coal-shipped-from-english-scottish-and-irish-ports-16113/page-499-504-26942/#collection-gallery"},"geometry":{"type":"Point","coordinates":[-4.633297,55.46622]}},{"@id":"https://w3id.org/coal%20maps25.08.23%20-%20Sheet1/570e6d8a-f40b-465d-a14c-e6fc63d0d8f6","type":"Feature","properties":{"title":"1837 - A document listing the quantity of coal shipped from English, Scottish and Irish ports in 1836 and 1837. Port of Dublin appears on the list","url":"https://thecommonroom.org.uk/collection/coal-shipped-from-english-scottish-and-irish-ports-16113/page-499-504-26942/#collection-gallery"},"geometry":{"type":"Point","coordinates":[-6.206939,53.3455]}},{"@id":"https://w3id.org/coal%20maps25.08.23%20-%20Sheet1/4a926880-3c4f-406e-9943-cbf5578aad56","type":"Feature","properties":{"title":"1837 - A document listing the quantity of coal shipped from English, Scottish and Irish ports in 1836 and 1837. Port of Watford appears on the list","url":"https://thecommonroom.org.uk/collection/coal-shipped-from-english-scottish-and-irish-ports-16113/page-499-504-26942/#collection-gallery"},"geometry":{"type":"Point","coordinates":[-7.114593,52.26241]}},{"@id":"https://w3id.org/coal%20maps25.08.23%20-%20Sheet1/1bdf4307-28b3-43b3-ae25-11554cc0b0eb","type":"Feature","properties":{"title":"1838 - A newspaper cuttings regarding measures to regulate the Port of London after complaints of fraud was made","url":"https://thecommonroom.org.uk/collection/to-regulate-the-port-of-london-16115/page-507-26944/#collection-gallery"},"geometry":{"type":"Point","coordinates":[-0.04960075,51.49743]}},{"@id":"https://w3id.org/coal%20maps25.08.23%20-%20Sheet1/442875ee-87bd-4bd0-bc2d-de09a2c71c9f","type":"Feature","properties":{"title":"1837 - A document listing the quantity of coal shipped from English, Scottish and Irish ports in 1836 and 1837. Port of Limerick appears on the list","url":"https://thecommonroom.org.uk/collection/coal-shipped-from-english-scottish-and-irish-ports-16113/page-499-504-26942/#collection-gallery"},"geometry":{"type":"Point","coordinates":[-8.642039,52.66005]}},{"@id":"https://w3id.org/coal%20maps25.08.23%20-%20Sheet1/18ee7302-f678-453c-b6e4-94cede4466ac","type":"Feature","properties":{"title":"Date Unkown - A document that mentions a meeting to take place at Moot Hall about the high unemployment among pitmen. A group of magistrates offering to be the mediators between  the pitmen and the coal owners","url":"https://thecommonroom.org.uk/collection/blank-16422/page-289-27252/#collection-gallery"},"geometry":{"type":"Point","coordinates":[-1.609452762,54.96887078]}},{"@id":"https://w3id.org/coal%20maps25.08.23%20-%20Sheet1/4208b58e-9a76-4e13-baa7-c37b399e691f","type":"Feature","properties":{"title":"1831 - Reports of large meetings at Blyth, Blackfell and Jarrow regarding the dispute. At Blyth pitmen visited the colliery and threatened to set it on fire","url":"https://thecommonroom.org.uk/collection/reports-of-large-meetings-at-blyth-blackfell-and-jarrow-re-dispute-16454/page-371-372-27284/#collection-gallery"},"geometry":{"type":"Point","coordinates":[-1.5215887,55.134126]}},{"@id":"https://w3id.org/coal%20maps25.08.23%20-%20Sheet1/e345c9b4-9fae-4f2a-8618-8e17952870b3","type":"Feature","properties":{"title":"1831 - Reports of large meetings at Blyth, Blackfell and Jarrow regarding the dispute. At Bedlington Colliery pitmen visited the colliery and threatened to set it on fire","url":"https://thecommonroom.org.uk/collection/reports-of-large-meetings-at-blyth-blackfell-and-jarrow-re-dispute-16454/page-371-372-27284/#collection-gallery"},"geometry":{"type":"Point","coordinates":[-1.574867,55.138817]}},{"@id":"https://w3id.org/coal%20maps25.08.23%20-%20Sheet1/b5b206ca-0ce9-4ff3-9f3a-7cb79d2e1332","type":"Feature","properties":{"title":"1831 - Reports of large meetings at Blyth, Blackfell and Jarrow regarding the dispute. At Netherton Colliery pitmen visited the colliery and threatened to set it on fire but were prevented by quantity of ale","url":"https://thecommonroom.org.uk/collection/reports-of-large-meetings-at-blyth-blackfell-and-jarrow-re-dispute-16454/page-371-372-27284/#collection-gallery"},"geometry":{"type":"Point","coordinates":[-1.6263354,55.137053]}},{"@id":"https://w3id.org/coal%20maps25.08.23%20-%20Sheet1/d37975d1-010d-4433-b4dd-7d093bf2ac91","type":"Feature","properties":{"title":"1831 - Reports of large meetings at Blyth, Blackfell, and Jarrow regarding the dispute. At Collington Colliery pitmen visited the colliery and emptied the larder and cellar of th the management","url":"https://thecommonroom.org.uk/collection/reports-of-large-meetings-at-blyth-blackfell-and-jarrow-re-dispute-16454/page-371-372-27284/#collection-gallery"},"geometry":{"type":"Point","coordinates":[-1.514167,55.083889]}},{"@id":"https://w3id.org/coal%20maps25.08.23%20-%20Sheet1/01b873d5-f2e9-48c6-b390-f6883c91c7c5","type":"Feature","properties":{"title":"1831 - Reports of large meetings at Blyth, Blackfell, and Jarrow regarding the dispute. At Jesmond-Dean Colliery pitmen caused damage to equipment","url":"https://thecommonroom.org.uk/collection/reports-of-large-meetings-at-blyth-blackfell-and-jarrow-re-dispute-16454/page-371-372-27284/#collection-gallery"},"geometry":{"type":"Point","coordinates":[-1.6014575,54.988838]}},{"@id":"https://w3id.org/coal%20maps25.08.23%20-%20Sheet1/4acec27b-962e-4631-93c0-6541ba4e993f","type":"Feature","properties":{"title":"1831 - Reports of large meetings at Blyth, Blackfell, and Jarrow regarding the dispute. A ship came from Portsmouth Port to deal with the distribution","url":"https://thecommonroom.org.uk/collection/reports-of-large-meetings-at-blyth-blackfell-and-jarrow-re-dispute-16454/page-371-372-27284/#collection-gallery"},"geometry":{"type":"Point","coordinates":[-1.090738,50.812037]}},{"@id":"https://w3id.org/coal%20maps25.08.23%20-%20Sheet1/8d98110b-ca05-4304-a73f-5896a479e7c0","type":"Feature","properties":{"title":"1831 - Reports of large meetings at Blyth, Blackfell, and Jarrow regarding the dispute. At Jarrow a meeting was attended by pitmen from 49 collieries","url":"https://thecommonroom.org.uk/collection/reports-of-large-meetings-at-blyth-blackfell-and-jarrow-re-dispute-16454/page-371-372-27284/#collection-gallery"},"geometry":{"type":"Point","coordinates":[-1.4909374,54.981309]}},{"@id":"https://w3id.org/coal%20maps25.08.23%20-%20Sheet1/a0d5547e-fdfe-428b-9c8b-cff3ff4ddb50","type":"Feature","properties":{"title":"1838 - Newspaper cutting which references the Tees Coal Trade anniversary dinner which took place at the Exchange Hotel, now Customs Place, in Middlesborough","url":"https://thecommonroom.org.uk/collection/newspaper-cuttings-re-the-coal-trade-16109/page-495-26938/#collection-gallery"},"geometry":null},{"@id":"https://w3id.org/coal%20maps25.08.23%20-%20Sheet1/aada37c1-37ea-4cea-a5c3-aa96f010f025","type":"Feature","properties":{"title":"1838 - Newspaper cutting about the parliamentary returns about the quantity and declared value of coals being shipped from ports of England, Scotland, and Ireland. Port of Newcastle is mentioned","url":"https://thecommonroom.org.uk/collection/newspaper-cuttings-re-parliamentary-returns-on-the-coal-trade-16100/page-485-26929/#collection-gallery"},"geometry":{"type":"Point","coordinates":[-1.4527902,54.992471]}},{"@id":"https://w3id.org/coal%20maps25.08.23%20-%20Sheet1/12d98c1e-0f6b-4a42-bb57-9d2e55797444","type":"Feature","properties":{"title":"1838 - Newspaper cutting about the parliamentary returns about the quantity and declared value of coals being shipped from ports of England, Scotland, and Ireland. Port of Sunderland is mentioned","url":"https://thecommonroom.org.uk/collection/newspaper-cuttings-re-parliamentary-returns-on-the-coal-trade-16100/page-485-26929/#collection-gallery"},"geometry":{"type":"Point","coordinates":[-1.381408,54.91129]}},{"@id":"https://w3id.org/coal%20maps25.08.23%20-%20Sheet1/052e9f89-2da3-44a2-b3b1-815311efa6da","type":"Feature","properties":{"title":"1838 - Newspaper cutting about the parliamentary returns about the quantity and declared value of coals being shipped from ports of England, Scotland, and Ireland. Port of Stockton is mentioned","url":"https://thecommonroom.org.uk/collection/newspaper-cuttings-re-parliamentary-returns-on-the-coal-trade-16100/page-485-26929/#collection-gallery"},"geometry":{"type":"Point","coordinates":[-1.308264,54.56527]}},{"@id":"https://w3id.org/coal%20maps25.08.23%20-%20Sheet1/47163e58-c809-4a7b-a081-30605ff76906","type":"Feature","properties":{"title":"1838 - Newspaper cutting about the parliamentary returns about the quantity and declared value of coals being shipped from ports of England, Scotland, and Ireland. Port of Hull is mentioned","url":"https://thecommonroom.org.uk/collection/newspaper-cuttings-re-parliamentary-returns-on-the-coal-trade-16100/page-485-26929/#collection-gallery"},"geometry":{"type":"Point","coordinates":[-0.2797584,53.74237]}},{"@id":"https://w3id.org/coal%20maps25.08.23%20-%20Sheet1/053148b7-5430-49d7-8bf0-f245d4319bc0","type":"Feature","properties":{"title":"1838 - Newspaper cutting about the parliamentary returns about the quantity and declared value of coals being shipped from ports of England, Scotland, and Ireland. Port of Poole is mentioned","url":"https://thecommonroom.org.uk/collection/newspaper-cuttings-re-parliamentary-returns-on-the-coal-trade-16100/page-485-26929/#collection-gallery"},"geometry":{"type":"Point","coordinates":[-1.99248,50.7096]}},{"@id":"https://w3id.org/coal%20maps25.08.23%20-%20Sheet1/3f42b135-426a-4273-8c1e-000a5c840e85","type":"Feature","properties":{"title":"1838 - Newspaper cutting about the parliamentary returns about the quantity and declared value of coals being shipped from ports of England, Scotland, and Ireland. Port of Carlise is mentioned","url":"https://thecommonroom.org.uk/collection/newspaper-cuttings-re-parliamentary-returns-on-the-coal-trade-16100/page-485-26929/#collection-gallery"},"geometry":{"type":"Point","coordinates":[-3.1865323,54.948652]}},{"@id":"https://w3id.org/coal%20maps25.08.23%20-%20Sheet1/e36dfe6b-ada8-4e23-a7d2-8eea06b00518","type":"Feature","properties":{"title":"1838 - Newspaper cutting about the parliamentary returns about the quantity and declared value of coals being shipped from ports of England, Scotland, and Ireland. Port of Whitehaven is mentioned","url":"https://thecommonroom.org.uk/collection/newspaper-cuttings-re-parliamentary-returns-on-the-coal-trade-16100/page-485-26929/#collection-gallery"},"geometry":{"type":"Point","coordinates":[-3.593807,54.55091]}},