{"@id":"https://w3id.org/Coal%20Maps%2024_08_23","type":"FeatureCollection","@context":"https://w3id.org/locolligo/contexts/linkedplaces.jsonld","features":[{"@id":"https://w3id.org/Coal%20Maps%2024_08_23/bb41f17d-1435-4b33-91c4-cc32d0c103aa","type":"Feature","properties":{"title":"1974 - Westoe Colliery, Ranging arm machinery along with a Miner observing it","url":"https://thecommonroom.org.uk/collection/westoe-colliery-ranging-arm-shearer-underground-machinery-people-19223/page-4-25701/"},"geometry":{"type":"Point","coordinates":[-1.416958,54.994924]}},{"@id":"https://w3id.org/Coal%20Maps%2024_08_23/4709a031-b55e-4075-a8e0-a197168154b0","type":"Feature","properties":{"title":"1830 - Engraving of fossil tree at Cresswell","url":"https://thecommonroom.org.uk/collection/engravings-of-fossil-tree-at-cresswell-15592/page-161-26422/"},"geometry":{"type":"Point","coordinates":[-1.54025,55.23567]}},{"@id":"https://w3id.org/Coal%20Maps%2024_08_23/82dacc5d-4338-4206-ad51-f5c8965d0447","type":"Feature","properties":{"title":"1887 - Under the Coal Tyne by John Hodgson Campbell based on his visits to Redheugh Colliery ","url":"https://thecommonroom.org.uk/collection/under-the-coaly-tyne-painting-15570/folder-22047/"},"geometry":{"type":"Point","coordinates":[-1.619513,54.957647]}},{"@id":"https://w3id.org/Coal%20Maps%2024_08_23/725cb613-e9c8-432a-974d-99c27785a121","type":"Feature","properties":{"title":"date unkown - 600' Central Mine, Broken Hill, Australia","url":"https://thecommonroom.org.uk/collection/600-central-mine-broken-hill-h-f-bulman-19184/page-9-25662/"},"geometry":{"type":"Point","coordinates":[141.45583,-31.97694]}},{"@id":"https://w3id.org/Coal%20Maps%2024_08_23/f7113b07-d156-451f-b00b-1873dc8360f5","type":"Feature","properties":{"title":"Date unkown - Library of Parliament, Ottowa, Canada","url":"https://thecommonroom.org.uk/collection/library-of-parliament-ottawa-canada-19213/page-40-25691/"},"geometry":{"type":"Point","coordinates":[-75.700233,45.425507]}},{"@id":"https://w3id.org/Coal%20Maps%2024_08_23/1905efc0-69ea-486c-bbd5-285a06ac3343","type":"Feature","properties":{"title":"Date unkown -  Westoe Crown Shaft","url":"https://thecommonroom.org.uk/collection/library-of-parliament-ottawa-canada-19213/page-40-25691/"},"geometry":{"type":"Point","coordinates":[-1.416958,54.994924]}},{"@id":"https://w3id.org/Coal%20Maps%2024_08_23/e51d3f19-8e23-4e6e-afdf-9af9a74497e8","type":"Feature","properties":{"title":"1974 - Acklington R.A.F Station ","url":"https://thecommonroom.org.uk/collection/opencast-acklington-raf-station-19269/page-50-25747/"},"geometry":{"type":"Point","coordinates":[-1.641666667,55.3]}},{"@id":"https://w3id.org/Coal%20Maps%2024_08_23/fa96e319-08bc-4e4b-b7e8-4b2a46f1be17","type":"Feature","properties":{"title":"1980 - Blyth Harbour ","url":"https://thecommonroom.org.uk/collection/blyth-harbour-vertical-aerial-view-19267/page-48-25745/"},"geometry":{"type":"Point","coordinates":[-1.50273233,55.13069916]}},{"@id":"https://w3id.org/Coal%20Maps%2024_08_23/0beec880-b6e9-4bf9-8811-1ff0625ceeca","type":"Feature","properties":{"title":"Date unkown - Quincy No. 2 Shaft, Rookhouse","url":"https://thecommonroom.org.uk/collection/quincy-no-2-shaft-rookhouse-photo-by-islar-19187/page-13-25665/#collection-gallery"},"geometry":{"type":"Point","coordinates":[-88.5731,47.1357]}},{"@id":"https://w3id.org/Coal%20Maps%2024_08_23/2e5b1d92-3cef-4060-806c-1b8f373a279b","type":"Feature","properties":{"title":"1980 - Seaham by air","url":"https://thecommonroom.org.uk/collection/seaham-vertical-aerial-photo-19257/page-38-25735/"},"geometry":{"type":"Point","coordinates":[-1.325521,54.83615]}},{"@id":"https://w3id.org/Coal%20Maps%2024_08_23/055b1391-d803-45a6-b2af-c86459b7f9d8","type":"Feature","properties":{"title":"Date Unkown - Miner standing underground in Ellington Colliery ","url":"https://thecommonroom.org.uk/collection/ellington-colliery-underground-19254/page-35-25732/"},"geometry":{"type":"Point","coordinates":[-1.5562069,55.219717]}},{"@id":"https://w3id.org/Coal%20Maps%2024_08_23/287279f2-d3f9-42b1-8c79-abc127296a31","type":"Feature","properties":{"title":"Date unkown - Miner working with equipment in Ellington Colliery","url":"https://thecommonroom.org.uk/collection/ellington-colliery-northumberland-19251/page-32-25729/"},"geometry":{"type":"Point","coordinates":[-1.5562069,55.219717]}},{"@id":"https://w3id.org/Coal%20Maps%2024_08_23/113fa614-5ee4-4e91-8be7-004ae59dd4f3","type":"Feature","properties":{"title":"Date unkown - Ariel view of Ellington Colliery ","url":"https://thecommonroom.org.uk/collection/ellington-colliery-northumberland-aerial-view-19246/page-27-25724/#collection-gallery"},"geometry":{"type":"Point","coordinates":[-1.5562069,55.218272]}},{"@id":"https://w3id.org/Coal%20Maps%2024_08_23/5f2aa3fd-d3a2-4e94-8754-fdba8112005a","type":"Feature","properties":{"title":"Date unkown - Jarrow Coal terminal aerial view","url":"https://thecommonroom.org.uk/collection/jarrow-coal-terminal-aerial-view-19259/page-40-25737/"},"geometry":{"type":"Point","coordinates":[-1.4826042,54.982909]}},{"@id":"https://w3id.org/Coal%20Maps%2024_08_23/72b3a107-1245-4b32-be0a-d7fa9c8fc59f","type":"Feature","properties":{"title":"1973 - Man working the underground conveyor system in Dawdon Colliery","url":"https://thecommonroom.org.uk/collection/dawdon-colliery-underground-conveyor-system-19233/page-14-25711/#collection-gallery"},"geometry":{"type":"Point","coordinates":[-1.3229363,54.823154]}},{"@id":"https://w3id.org/Coal%20Maps%2024_08_23/0ba5617e-6a95-4151-932d-0c86e089e6b7","type":"Feature","properties":{"title":"1973 - a dosco Roadheader in Murton Colliery","url":"https://thecommonroom.org.uk/collection/murton-colliery-dosco-roadheader-19245/page-26-25723/#collection-gallery"},"geometry":null},{"@id":"https://w3id.org/Coal%20Maps%2024_08_23/8e551fb8-d959-40eb-bd9d-5534f724e0b8","type":"Feature","properties":{"title":"Date unkown - Photograph of Mount Stephen in British Columbia from Kicking Horse River","url":"https://thecommonroom.org.uk/collection/1169-mt-stephen-from-kicking-horse-river-rockies-back-photo-by-boorne-and-may-calgary-19206/page-32-25684/"},"geometry":{"type":"Point","coordinates":[-116.436354,51.398938]}},{"@id":"https://w3id.org/Coal%20Maps%2024_08_23/accf13ed-79e3-4350-a18b-93fdc6879635","type":"Feature","properties":{"title":"Date Unkown - Mouth of Sundance Canyon in Banff","url":"https://thecommonroom.org.uk/collection/1271-mouth-of-sundance-canyon-banff-19207/page-33-25685/"},"geometry":{"type":"Point","coordinates":[-115.615562,51.154094]}},{"@id":"https://w3id.org/Coal%20Maps%2024_08_23/86561e85-ec1e-4b8c-9792-bc7a870637ff","type":"Feature","properties":{"title":"Date Unkown - Enclosure at Adelaide Zoo containing a stork","url":"https://thecommonroom.org.uk/collection/zoo-adelaide-19330/page-22-25808/"},"geometry":{"type":"Point","coordinates":[138.6058333,-34.91416667]}},{"@id":"https://w3id.org/Coal%20Maps%2024_08_23/b0b38b96-ac97-4546-84ee-647ec8d2735a","type":"Feature","properties":{"title":"1979 - Ariel View of Hawthorn Colliery ","url":"https://thecommonroom.org.uk/collection/hawthorn-site-vertical-aerial-view-19278/page-59-25756/"},"geometry":{"type":"Point","coordinates":[-1.32309,54.81048]}},{"@id":"https://w3id.org/Coal%20Maps%2024_08_23/f7659731-04d9-4083-858f-fc55b329ac10","type":"Feature","properties":{"title":"1974 - Opencast mine in Nackshivan ","url":"https://thecommonroom.org.uk/collection/1271-mouth-of-sundance-canyon-banff-19207/page-33-25685/"},"geometry":{"type":"Point","coordinates":[-1.7110282,54.725799]}},{"@id":"https://w3id.org/Coal%20Maps%2024_08_23/8e10b623-ca0e-4e3a-9936-17fe36912323","type":"Feature","properties":{"title":"1974 - Ariel View of an opencast mine on the Ragpath Site","url":"https://thecommonroom.org.uk/collection/opencast-ragpath-site-co-durham-aerial-view-19270/page-51-25748/"},"geometry":{"type":"Point","coordinates":[-1.763611111,54.79861111]}},{"@id":"https://w3id.org/Coal%20Maps%2024_08_23/5ca5e8eb-812a-4f66-93a6-02b6e77588f4","type":"Feature","properties":{"title":"1974 - Dawdon Colliery, rack a track","url":"https://thecommonroom.org.uk/collection/river-wear-sunderland-aerial-view-19268/page-49-25746/"},"geometry":{"type":"Point","coordinates":[-1.3229363,54.823154]}},{"@id":"https://w3id.org/Coal%20Maps%2024_08_23/abe7f82d-fa1a-43d5-9e86-fdb99e03003c","type":"Feature","properties":{"title":"Date unkown - Dawdon tunelling Machine","url":"https://thecommonroom.org.uk/collection/dawdon-tunnelling-machine-19244/page-25-25722/#collection-gallery"},"geometry":{"type":"Point","coordinates":[-1.3229363,54.823154]}},{"@id":"https://w3id.org/Coal%20Maps%2024_08_23/3da04100-79ab-4547-a3b7-a9563d302351","type":"Feature","properties":{"title":"Date unkown - Arieal view of the River Wear as it goes through Sunderland ","url":"https://thecommonroom.org.uk/collection/river-wear-sunderland-aerial-view-19268/page-49-25746/"},"geometry":{"type":"Point","coordinates":[-1.373123,54.910481]}},{"@id":"https://w3id.org/Coal%20Maps%2024_08_23/75b79713-e5da-4109-91e6-9221a4f2b496","type":"Feature","properties":{"title":"Date unkown - Conveyer delivering spoil to beaches in Dawdon Beach","url":"https://thecommonroom.org.uk/collection/conveyer-delivering-spoil-to-beach-bulldozers-19478/page-8-25956/"},"geometry":{"type":"Point","coordinates":[-1.3214295,54.824093]}},{"@id":"https://w3id.org/Coal%20Maps%2024_08_23/2ad51e31-6890-4877-aa05-ec57b34d9075","type":"Feature","properties":{"title":"1830 - Plan and Section of the Gilmerton Coalfield showing coal seams ","url":"https://thecommonroom.org.uk/collection/plan-and-section-of-the-gilmerton-coalfield-15677/page-407-26506/"},"geometry":{"type":"Point","coordinates":[-3.1274482,55.899949]}},{"@id":"https://w3id.org/Coal%20Maps%2024_08_23/97f43933-82d3-42c0-adc2-6a36edd8a073","type":"Feature","properties":{"title":"1901 - Painting of George Baker Foster by H. Von Herkomer. Foster lived in Farnley Hill Corbridge during his life and was President of the North of England Mining Institute and Mechanical Engineers","url":"https://thecommonroom.org.uk/collection/george-baker-forster-painting-15566/folder-22038/"},"geometry":{"type":"Point","coordinates":[-2.005788,54.961262]}},{"@id":"https://w3id.org/Coal%20Maps%2024_08_23/d521ba07-27ae-4659-8b17-1db13f8b67e6","type":"Feature","properties":{"title":"Date unkown - Painting of William Cuthbert Blacket by unkown artists. Blackett, who attended Durham University lived in South Bailey and was President of the North of England Mining Institute and Mechanical Engineers","url":"https://thecommonroom.org.uk/collection/william-c-blackett-painting-15564/folder-22035/"},"geometry":{"type":"Point","coordinates":[-1.575314,54.772087]}},{"@id":"https://w3id.org/Coal%20Maps%2024_08_23/9c4c10a2-646e-4500-8bfb-03d12caf2a70","type":"Feature","properties":{"title":"Date Unkown - Painting of George Stephenson by unkown artist. Stephenson is considered the \"Father of Railways\" with the \"Stephenson gauge\" still used as the standard for most of the world's railways","url":"https://thecommonroom.org.uk/collection/george-stephenson-painting-15565/folder-22036/"},"geometry":{"type":"Point","coordinates":[-1.5718211,55.027558]}},{"@id":"https://w3id.org/Coal%20Maps%2024_08_23/4077b549-c131-4bef-9ed0-576ac187e70e","type":"Feature","properties":{"title":"Date Unkown - Painting of John Bubble by an unkown artist. Bubble had a major influence on the development of Northen Coalfield and their saftey. Though working in many coalmines he started off his career working in Walllsend Colliery and died in Wallsend in 1843","url":"https://thecommonroom.org.uk/collection/john-buddle-painting-15552/folder-15056/"},"geometry":{"type":"Point","coordinates":[-1.5170374,54.991228]}},{"@id":"https://w3id.org/Coal%20Maps%2024_08_23/bf33f021-c314-4c1b-921d-2a7d195bd4a3","type":"Feature","properties":{"title":"Date unkown - Whaleback Ore Ships on Lake Huron","url":"https://thecommonroom.org.uk/collection/lake-huron-whalebacks-ore-ships-19311/page-2-25789/"},"geometry":{"type":"Point","coordinates":[-82.4,44.79999983]}},{"@id":"https://w3id.org/Coal%20Maps%2024_08_23/7c1e69ec-53a3-428f-a297-ad0cc30a5558","type":"Feature","properties":{"title":"Date unkown - Slocan City in Canada ","url":"https://thecommonroom.org.uk/collection/slocan-city-19313/page-4-25791/"},"geometry":{"type":"Point","coordinates":[-117.470909,49.766079]}},{"@id":"https://w3id.org/Coal%20Maps%2024_08_23/aa9516e6-c6bf-4fda-9a6c-809ab982b8c1","type":"Feature","properties":{"title":"Date Unkown - A picture of the Niagra Falls in the USA","url":"https://thecommonroom.org.uk/collection/niagara-falls-usa-19217/page-44-25695/"},"geometry":{"type":"Point","coordinates":[-79.07411377,43.08262805]}},{"@id":"https://w3id.org/Coal%20Maps%2024_08_23/dc6657b2-8e3b-41f3-af20-1918edd88ad6","type":"Feature","properties":{"title":"Date unkown - A picture of Broken Hills Australia where mining took place","url":"https://thecommonroom.org.uk/collection/vignette-for-head-pieces-3325-h-f-bulman-19178/page-3-25656/"},"geometry":{"type":"Point","coordinates":[141.45583,-31.97694]}},{"@id":"https://w3id.org/Coal%20Maps%2024_08_23/2c45af70-77da-45e0-b0fe-99ec9fcd861e","type":"Feature","properties":{"title":"Date Unkown - Calumet Michigan, two men standing in front of a Calumet and Helcla Drift","url":"https://thecommonroom.org.uk/collection/front-underground-calumet-and-hecla-drift-604-back-view-of-face-of-drift-in-the-copper-bearing-bed-at-calumet-and-hecla-h-f-bulman-19192/page-18-25670/"},"geometry":{"type":"Point","coordinates":[-105.94785,38.63737]}},{"@id":"https://w3id.org/Coal%20Maps%2024_08_23/467f8bf1-51a4-4a80-ad16-8d9378f961c0","type":"Feature","properties":{"title":"Date unkown - Quincy Stamp Mill","url":"https://thecommonroom.org.uk/collection/quincy-stamp-mill-photo-by-19191/page-17-25669/"},"geometry":{"type":"Point","coordinates":[-88.46,47.146667]}},{"@id":"https://w3id.org/Coal%20Maps%2024_08_23/d4b42a3f-03f2-4860-9798-d7d167d65185","type":"Feature","properties":{"title":"Date unkown - Bow River Rapids in Canada. In the background a Canadian Pacific Railway (CPR) hotel can be seen. The hotel opened in 1888","url":"https://thecommonroom.org.uk/collection/bow-rapids-and-c-p-r-hotel-banff-19201/page-27-25679/"},"geometry":{"type":"Point","coordinates":[-115.561944,51.164444]}},{"@id":"https://w3id.org/Coal%20Maps%2024_08_23/ca76e47e-13f1-4dfe-a045-81b14831f1c3","type":"Feature","properties":{"title":"Date Unkown - University of Toronto Canada","url":"https://thecommonroom.org.uk/collection/university-of-toronto-canada-19216/page-43-25694/"},"geometry":{"type":"Point","coordinates":[-79.396446,43.663497]}},{"@id":"https://w3id.org/Coal%20Maps%2024_08_23/402de0a9-322f-401a-8f62-3832a0f72c5e","type":"Feature","properties":{"title":"Date unkown - Parliament buildings in Toronto Canada","url":"https://thecommonroom.org.uk/collection/parliament-buildings-toronto-canada-19215/page-42-25693/#collection-gallery"},"geometry":{"type":"Point","coordinates":[-79.39117826,43.66236228]}},{"@id":"https://w3id.org/Coal%20Maps%2024_08_23/67beba9f-757d-474e-8f2c-1519a375e504","type":"Feature","properties":{"title":"Date unkown - Regina","url":"https://thecommonroom.org.uk/collection/regina-capital-of-nw-territories-19314/page-5-25792/"},"geometry":{"type":"Point","coordinates":[-104.6181946,50.44549292]}},{"@id":"https://w3id.org/Coal%20Maps%2024_08_23/d09e8f02-7bf6-49c9-9b74-8d19a301e0af","type":"Feature","properties":{"title":"Date unkown - Kalguri Australia","url":"https://thecommonroom.org.uk/collection/kalgwili-hospital-19338/page-30-25816/"},"geometry":{"type":"Point","coordinates":[121.470045,-30.740452]}},{"@id":"https://w3id.org/Coal%20Maps%2024_08_23/6e3ef9c1-0cf7-4bf7-806e-11b98cad5afd","type":"Feature","properties":{"title":"Date unkown - Kalguri in Australia, a miner is seen standing with a mahine with buildings behind him","url":"https://thecommonroom.org.uk/collection/dry-blower-kalgurli-h-f-bulman-19370/page-64-25848/#collection-gallery"},"geometry":null},{"@id":"https://w3id.org/Coal%20Maps%2024_08_23/dc102588-4d4b-43bb-bbe6-403fc7a880cb","type":"Feature","properties":{"title":"Date unkown - Port Pirie smelting works with manager of the plant, Mr Robertson, standing outside","url":"https://thecommonroom.org.uk/collection/dry-blower-kalgurli-h-f-bulman-19370/page-64-25848/#collection-gallery"},"geometry":{"type":"Point","coordinates":[138.0092747,-33.16944318]}},{"@id":"https://w3id.org/Coal%20Maps%2024_08_23/d6aac312-83ea-4741-8c35-016f7e4792d3","type":"Feature","properties":{"title":"Date Unkown - Map to accompany the survey of Agriculture in Northumberland by Bailey and Culley","url":"https://thecommonroom.org.uk/collection/map-to-accompany-the-survey-of-agriculture-in-northumberland-by-bailey-and-culley-15607/page-203-26437/#collection-gallery"},"geometry":{"type":"Point","coordinates":[-117.390352,49.938917]}},{"@id":"https://w3id.org/Coal%20Maps%2024_08_23/28411d22-9c3f-4f91-a494-1d0ecbacc642","type":"Feature","properties":{"title":"Date Unkown - Map to accompany the survey of Agriculture in Northumberland by Bailey and Culley","url":"https://thecommonroom.org.uk/collection/map-to-accompany-the-survey-of-agriculture-in-northumberland-by-bailey-and-culley-15607/page-203-26437/#collection-gallery"},"geometry":{"type":"Point","coordinates":[-1.687491667,55.16875]}},{"@id":"https://w3id.org/Coal%20Maps%2024_08_23/e852cf1c-b0c7-4944-a546-b5bf1cf68ff0","type":"Feature","properties":{"title":"1829 - Article about Colliery explosions from 1805 to 1828 which notes the 1817 explosion at Row Pit at Harraton which killed 38 men. The list comes from an adress given to the Coal Trade Investigation in a Committee of the House of Lords","url":"https://thecommonroom.org.uk/collection/article-about-colliery-explosions-from-1805-to-1828-16026/page-111-26855/#collection-gallery"},"geometry":{"type":"Point","coordinates":[-1.5433469,54.876305]}},{"@id":"https://w3id.org/Coal%20Maps%2024_08_23/9226e21a-a818-418f-a9aa-0f0d39af8f9b","type":"Feature","properties":{"title":"1829 - Article about Colliery explosions from 1805 to 1828 which notes the 1805, 1814 and 1825 explosion at Hebburn Colliery which killed 35,11 and 4 men respectively. The list comes from an adress given to the Coal Trade Investigation in a Committee of the House of Lords","url":"https://thecommonroom.org.uk/collection/article-about-colliery-explosions-from-1805-to-1828-16026/page-111-26855/#collection-gallery"},"geometry":{"type":"Point","coordinates":[-1.5102967,54.98262]}},{"@id":"https://w3id.org/Coal%20Maps%2024_08_23/12d1d61e-5920-4afd-a0f9-e27f747b391c","type":"Feature","properties":{"title":"1829 - Article about Colliery explosions from 1805 to 1828 which notes the 1812, 1813 and 1821 explosion at Felling Colliery which killed 92,22 and 52 men respectively. The list comes from an adress given to the Coal Trade Investigation in a Committee of the House of Lords","url":"https://thecommonroom.org.uk/collection/article-about-colliery-explosions-from-1805-to-1828-16026/page-111-26855/#collection-gallery"},"geometry":{"type":"Point","coordinates":[-1.5721357,54.955364]}},{"@id":"https://w3id.org/Coal%20Maps%2024_08_23/38f44359-4e24-4610-8736-73cf37e4aac5","type":"Feature","properties":{"title":"1829 - Article about Colliery explosions from 1805 to 1828 which notes the 1812 explosion at Row Pit at Herrington Mill Pit which killed 23 men. The list comes from an adress given to the Coal Trade Investigation in a Committee of the House of Lords","url":"https://thecommonroom.org.uk/collection/article-about-colliery-explosions-from-1805-to-1828-16026/page-111-26855/#collection-gallery"},"geometry":{"type":"Point","coordinates":[-1.4902454,54.86806]}},{"@id":"https://w3id.org/Coal%20Maps%2024_08_23/5085c297-637f-4053-946b-de8a2a6b53ff","type":"Feature","properties":{"title":"1829 - Article about Colliery explosions from 1805 to 1828 which notes the 1813 explosion at Hall Pit in Fatfield which killed 30 men. The list comes from an adress given to the Coal Trade Investigation in a Committee of the House of Lords","url":"https://thecommonroom.org.uk/collection/article-about-colliery-explosions-from-1805-to-1828-16026/page-111-26855/#collection-gallery"},"geometry":{"type":"Point","coordinates":[-1.5504804,54.885093]}},{"@id":"https://w3id.org/Coal%20Maps%2024_08_23/e746cbee-b2cc-4b96-8e95-a1c53a3dcdb1","type":"Feature","properties":{"title":"1829 - Article about Colliery explosions from 1805 to 1828 which notes the 1815 explosion at Sucess Pit in Newbottle which killed 57 men. The list comes from an adress given to the Coal Trade Investigation in a Committee of the House of Lords","url":"https://thecommonroom.org.uk/collection/article-about-colliery-explosions-from-1805-to-1828-16026/page-111-26855/#collection-gallery"},"geometry":{"type":"Point","coordinates":[-1.491669,54.860175]}},{"@id":"https://w3id.org/Coal%20Maps%2024_08_23/d402b8c6-a452-44ad-bec5-2ec8a600088b","type":"Feature","properties":{"title":"1829 - Article about Colliery explosions from 1805 to 1828 which notes the 1815 and 1819 explosion at Sheriff Hill which killed 11and 35 men respectively. The list comes from an adress given to the Coal Trade Investigation in a Committee of the House of Lords","url":"https://thecommonroom.org.uk/collection/article-about-colliery-explosions-from-1805-to-1828-16026/page-111-26855/#collection-gallery"},"geometry":{"type":"Point","coordinates":[-1.6006493,54.933246]}},{"@id":"https://w3id.org/Coal%20Maps%2024_08_23/4fbd7992-51ab-4db2-9446-59a739ee0367","type":"Feature","properties":{"title":"1829 - Article about Colliery explosions from 1805 to 1828 which notes the 1817, 1826 and 1828 explosion at the Jarrow Colliery which killed 6, 34 and 8 men respectively. The list comes from an adress given to the Coal Trade Investigation in a Committee of the House of Lords","url":"https://thecommonroom.org.uk/collection/article-about-colliery-explosions-from-1805-to-1828-16026/page-111-26855/#collection-gallery"},"geometry":{"type":"Point","coordinates":[-1.4826042,54.982909]}},{"@id":"https://w3id.org/Coal%20Maps%2024_08_23/e75e3e83-7f09-4249-8156-42dc902da12c","type":"Feature","properties":{"title":"1829 - Article about Colliery explosions from 1805 to 1828 which notes the 1817 and 1823 explosion at Plain Pit in Rainton which killed 26 and 57 men respectively. The list comes from an adress given to the Coal Trade Investigation in a Committee of the House of Lords","url":"https://thecommonroom.org.uk/collection/article-about-colliery-explosions-from-1805-to-1828-16026/page-111-26855/#collection-gallery"},"geometry":null},{"@id":"https://w3id.org/Coal%20Maps%2024_08_23/e54dd293-1ef4-4e49-a542-057225ea0e2b","type":"Feature","properties":{"title":"1829 - Article about Colliery explosions from 1805 to 1828 which notes the 1818 and 1821 explosion at Wallsend Colliery which killed 4 and 52 men respectively. The list comes from an adress given to the Coal Trade Investigation in a Committee of the House of Lords","url":"https://thecommonroom.org.uk/collection/article-about-colliery-explosions-from-1805-to-1828-16026/page-111-26855/#collection-gallery"},"geometry":{"type":"Point","coordinates":[-1.5337258,54.987474]}},{"@id":"https://w3id.org/Coal%20Maps%2024_08_23/22eb3d42-23cd-45be-8bef-6609348f3329","type":"Feature","properties":{"title":"1829 - Handbill summarising evidence given to the House of Lords regarding the Coal trade, including questions about Wallsend Colliery","url":"https://thecommonroom.org.uk/collection/handbill-entitled-great-news-for-pitmen-including-a-new-song-16028/page-113-26857/#collection-gallery"},"geometry":{"type":"Point","coordinates":[-1.5337258,54.987474]}},{"@id":"https://w3id.org/Coal%20Maps%2024_08_23/f7bb6448-1e18-47e2-be82-1ff71663ee59","type":"Feature","properties":{"title":"1830 - A pamphlet entitled Proceedings at Law in the Case of King V Rusell and others relative to Coal Staithes erected at Wallsend on the River Tyne","url":"https://thecommonroom.org.uk/collection/proceedings-re-coal-staithes-at-wallsend-16035/page-215-222-26864/"},"geometry":{"type":"Point","coordinates":[-1.5337258,54.987474]}},{"@id":"https://w3id.org/Coal%20Maps%2024_08_23/b8ebb8db-a782-49cd-9006-8026e7a68a2e","type":"Feature","properties":{"title":"1831 - Newspaper cutting relating to a general meeting of coal owners, ship owners, merchants and others which resolved to petition both houses of Parliament for the abolition of the duty on coals exported","url":"https://thecommonroom.org.uk/collection/coal-duties-16037/page-235-238-26866/#collection-gallery"},"geometry":{"type":"Point","coordinates":[-1.60767,54.96842]}},{"@id":"https://w3id.org/Coal%20Maps%2024_08_23/3ea23acd-c613-4f10-9dea-f804e6741a5c","type":"Feature","properties":{"title":"1829 - Article about Colliery explosions from 1805 to 1828 which notes the 1819 and 1823 explosion at George Pit in the Lumley Colliery which killed 13 and 14 men respectively. The list comes from an adress given to the Coal Trade Investigation in a Committee of the House of Lords","url":"https://thecommonroom.org.uk/collection/coal-duties-16037/page-235-238-26866/#collection-gallery"},"geometry":{"type":"Point","coordinates":[-1.5322246,54.921644]}},{"@id":"https://w3id.org/Coal%20Maps%2024_08_23/c5545b01-973a-429b-85b9-71a899c77370","type":"Feature","properties":{"title":"1829 - Article about Colliery explosions from 1805 to 1828 which notes the 1821 explosion at Coxlodge Pit which killed one man. The list comes from an adress given to the Coal Trade Investigation in a Committee of the House of Lord","url":"https://thecommonroom.org.uk/collection/coal-duties-16037/page-235-238-26866/#collection-gallery"},"geometry":{"type":"Point","coordinates":[-1.6251889,55.011469]}},{"@id":"https://w3id.org/Coal%20Maps%2024_08_23/41c7fb44-e8d0-4857-b819-e48629fc41c1","type":"Feature","properties":{"title":"1829 - Article about Colliery explosions from 1805 to 1828 which notes the 1823 explosion at Ouston Colliery in Chester-lee-street which killed 4 men. The list comes from an adress given to the Coal Trade Investigation in a Committee of the House of Lord","url":"https://thecommonroom.org.uk/collection/coal-duties-16037/page-235-238-26866/#collection-gallery"},"geometry":{"type":"Point","coordinates":[-1.5898523,54.877711]}},{"@id":"https://w3id.org/Coal%20Maps%2024_08_23/d832eb85-a52b-4df4-8b22-824b5215801a","type":"Feature","properties":{"title":"1829 - Article about Colliery explosions from 1805 to 1828 which notes the 1823 explosion at Neasham's Dolly Pit in Shiftree which killed 11 men. The list comes from an adress given to the Coal Trade Investigation in a Committee of the House of Lord","url":"https://thecommonroom.org.uk/collection/coal-duties-16037/page-235-238-26866/#collection-gallery"},"geometry":{"type":"Point","coordinates":[-1.8033666,54.540275]}},{"@id":"https://w3id.org/Coal%20Maps%2024_08_23/aa9502da-6431-46e9-89ea-c7ef05a193bf","type":"Feature","properties":{"title":"1829 - Article about Colliery explosions from 1805 to 1828 which notes the 1825 explosion at Juliet Pit in Fatfield which killed 11 men. The list comes from an adress given to the Coal Trade Investigation in a Committee of the House of Lord","url":"https://thecommonroom.org.uk/collection/coal-duties-16037/page-235-238-26866/#collection-gallery"},"geometry":{"type":"Point","coordinates":[-1.5230227,54.881762]}},{"@id":"https://w3id.org/Coal%20Maps%2024_08_23/a6218f84-fc67-4894-9b4c-faebd2c5c297","type":"Feature","properties":{"title":"1829 - Article about Colliery explosions from 1805 to 1828 which notes the 1826 explosion at Townly Pit which killed 38 men. The list comes from an adress given to the Coal Trade Investigation in a Committee of the House of Lord","url":"https://thecommonroom.org.uk/collection/coal-duties-16037/page-235-238-26866/#collection-gallery"},"geometry":{"type":"Point","coordinates":[-1.7765979,54.969516]}},{"@id":"https://w3id.org/Coal%20Maps%2024_08_23/b5f7a2b8-348b-4ace-9a79-f99a41160487","type":"Feature","properties":{"title":"1829 - Article about Colliery explosions from 1805 to 1828 which notes the 1826 explosion at Heworth Colliery which killed 4 men. The list comes from an adress given to the Coal Trade Investigation in a Committee of the House of Lord","url":"https://thecommonroom.org.uk/collection/coal-duties-16037/page-235-238-26866/#collection-gallery"},"geometry":{"type":"Point","coordinates":[-1.5598136,54.938371]}},{"@id":"https://w3id.org/Coal%20Maps%2024_08_23/7bdeb52e-8ff5-4a36-9b0f-c7495ac934fe","type":"Feature","properties":{"title":"1829 - Article about Colliery explosions from 1805 to 1828 which notes the 1826 explosion at Benwell Colliery which killed 2 men. The list comes from an adress given to the Coal Trade Investigation in a Committee of the House of Lord","url":"https://thecommonroom.org.uk/collection/coal-duties-16037/page-235-238-26866/#collection-gallery"},"geometry":{"type":"Point","coordinates":[-1.6656692,54.966701]}},{"@id":"https://w3id.org/Coal%20Maps%2024_08_23/754d4edf-f995-443f-bbf6-a4864e18fb0f","type":"Feature","properties":{"title":"1829 - Article about Colliery explosions from 1805 to 1828 which notes the 1828 explosion at New Pit at Houghton-le-Spring which killed 7 men. The list comes from an adress given to the Coal Trade Investigation in a Committee of the House of Lord","url":"https://thecommonroom.org.uk/collection/coal-duties-16037/page-235-238-26866/#collection-gallery"},"geometry":{"type":"Point","coordinates":[-1.4741457,54.846819]}},{"@id":"https://w3id.org/Coal%20Maps%2024_08_23/2f5fc8b2-04e3-4077-8584-56e0b9b61a7f","type":"Feature","properties":{"title":"1829 - Article about Colliery explosions from 1805 to 1828 which notes the 1828 explosion at Washington Colliery which killed 11 men. The list comes from an adress given to the Coal Trade Investigation in a Committee of the House of Lord","url":"https://thecommonroom.org.uk/collection/coal-duties-16037/page-235-238-26866/#collection-gallery"},"geometry":{"type":"Point","coordinates":[-1.5298566,54.910626]}},{"@id":"https://w3id.org/Coal%20Maps%2024_08_23/00cb0fdf-fe88-498c-a886-95dcc57eb493","type":"Feature","properties":{"title":"1831 - Newspaper cutting regarding the call for the abolition of the duty of coals, nicknamed the Richmond Shilling and the petition that was signed","url":"https://thecommonroom.org.uk/collection/coal-duties-16054/page-369-26883/#collection-gallery"},"geometry":{"type":"Point","coordinates":[-1.60767,54.96842]}},{"@id":"https://w3id.org/Coal%20Maps%2024_08_23/911b5515-12cc-4478-a9b2-a27cd01b57a1","type":"Feature","properties":{"title":"1834 - List of Collieries on the Tyne and their prices in September 1834, including the prices of Benwell Colliery ","url":"https://thecommonroom.org.uk/collection/collieries-on-the-tyne-and-coal-prices-16081/page-457-26910/#collection-gallery"},"geometry":{"type":"Point","coordinates":[-1.6656692,54.966701]}},{"@id":"https://w3id.org/Coal%20Maps%2024_08_23/23eacaaa-c7b7-4a5f-ab6f-f1e4f37410f9","type":"Feature","properties":{"title":"1834 - List of Collieries on the Tyne and their prices in September 1834, including the prices of Hebburn Colliery ","url":"https://thecommonroom.org.uk/collection/collieries-on-the-tyne-and-coal-prices-16081/page-457-26910/#collection-gallery"},"geometry":{"type":"Point","coordinates":[-1.5102967,54.98262]}},{"@id":"https://w3id.org/Coal%20Maps%2024_08_23/0b88d97b-3c95-4ef0-bcd8-3b27b5bffa64","type":"Feature","properties":{"title":"1834 - List of Collieries on the Tyne and their prices in September 1834, including the prices of Heworth Colliery ","url":"https://thecommonroom.org.uk/collection/collieries-on-the-tyne-and-coal-prices-16081/page-457-26910/#collection-gallery"},"geometry":{"type":"Point","coordinates":[-1.5598136,54.938371]}},{"@id":"https://w3id.org/Coal%20Maps%2024_08_23/d838d815-50ee-4e8e-bf03-b37b0776eba3","type":"Feature","properties":{"title":"1834 - List of Collieries on the Tyne and their prices in September 1834, including the prices of Jarrow Colliery ","url":"https://thecommonroom.org.uk/collection/collieries-on-the-tyne-and-coal-prices-16081/page-457-26910/#collection-gallery"},"geometry":{"type":"Point","coordinates":[-1.4826042,54.982909]}},{"@id":"https://w3id.org/Coal%20Maps%2024_08_23/0535715d-f181-4862-8bbe-80c656de5fe1","type":"Feature","properties":{"title":"1834 - List of Collieries on the Tyne and their prices in September 1834, including the prices of Ouston Colliery ","url":"https://thecommonroom.org.uk/collection/collieries-on-the-tyne-and-coal-prices-16081/page-457-26910/#collection-gallery"},"geometry":{"type":"Point","coordinates":[-1.5898523,54.877711]}},{"@id":"https://w3id.org/Coal%20Maps%2024_08_23/a5805d86-afb0-4cc0-a6cc-279e45c75a47","type":"Feature","properties":{"title":"1834 - List of Collieries on the Tyne and their prices in September 1834, including the prices of Sheriff Hill Colliery","url":"https://thecommonroom.org.uk/collection/collieries-on-the-tyne-and-coal-prices-16081/page-457-26910/#collection-gallery"},"geometry":{"type":"Point","coordinates":[-1.6006493,54.933246]}},{"@id":"https://w3id.org/Coal%20Maps%2024_08_23/a047cb5d-c501-4f7f-8c14-1d65861c279c","type":"Feature","properties":{"title":"1834 - List of Collieries on the Tyne and their prices in September 1834, including the prices of Townley Colliery ","url":"https://thecommonroom.org.uk/collection/collieries-on-the-tyne-and-coal-prices-16081/page-457-26910/#collection-gallery"},"geometry":{"type":"Point","coordinates":[-1.7765979,54.969516]}},{"@id":"https://w3id.org/Coal%20Maps%2024_08_23/5aec943f-d985-4c25-8e57-458b1b8bb328","type":"Feature","properties":{"title":"1834 - List of Collieries on the Tyne and their prices in September 1834, including the prices of Wallsend Colliery ","url":"https://thecommonroom.org.uk/collection/collieries-on-the-tyne-and-coal-prices-16081/page-457-26910/#collection-gallery"},"geometry":{"type":"Point","coordinates":[-1.5337258,54.987474]}},{"@id":"https://w3id.org/Coal%20Maps%2024_08_23/ae46be38-2ed9-4c13-9473-2c9e54b89eff","type":"Feature","properties":{"title":"1834 - List of Collieries on the Tyne and their prices in September 1834, including the prices of Callerton Colliery","url":"https://thecommonroom.org.uk/collection/collieries-on-the-tyne-and-coal-prices-16081/page-457-26910/#collection-gallery"},"geometry":{"type":"Point","coordinates":[-1.746561,55.02146]}},{"@id":"https://w3id.org/Coal%20Maps%2024_08_23/f2bb2ff2-5f41-43d8-ada3-28b66a9c3523","type":"Feature","properties":{"title":"1834 - List of Collieries on the Tyne and their prices in September 1834, including the prices of Killingworth Colliery","url":"https://thecommonroom.org.uk/collection/collieries-on-the-tyne-and-coal-prices-16081/page-457-26910/#collection-gallery"},"geometry":{"type":"Point","coordinates":[-1.5540852,55.030073]}},{"@id":"https://w3id.org/Coal%20Maps%2024_08_23/d9b8f8eb-63b5-4c59-8e65-156ffd1eacf1","type":"Feature","properties":{"title":"1834 - List of Collieries on the Tyne and their prices in September 1834, including the prices of Burradon  Colliery","url":"https://thecommonroom.org.uk/collection/collieries-on-the-tyne-and-coal-prices-16081/page-457-26910/#collection-gallery"},"geometry":{"type":"Point","coordinates":[-1.5737332,55.046391]}},{"@id":"https://w3id.org/Coal%20Maps%2024_08_23/6ce76488-d443-4582-8056-f8928aabe8b4","type":"Feature","properties":{"title":"1834 - List of Collieries on the Tyne and their prices in September 1834, including the prices of Backworth  Colliery","url":"https://thecommonroom.org.uk/collection/collieries-on-the-tyne-and-coal-prices-16081/page-457-26910/#collection-gallery"},"geometry":{"type":"Point","coordinates":[-1.5260359,55.040634]}},{"@id":"https://w3id.org/Coal%20Maps%2024_08_23/f8bcb135-9b4d-4d35-95ad-05883e65e8ca","type":"Feature","properties":{"title":"1834 - List of Collieries on the Tyne and their prices in September 1834, including the prices of Collingwood  Colliery","url":"https://thecommonroom.org.uk/collection/collieries-on-the-tyne-and-coal-prices-16081/page-457-26910/#collection-gallery"},"geometry":{"type":"Point","coordinates":[-1.4583983,55.00509]}},{"@id":"https://w3id.org/Coal%20Maps%2024_08_23/ff2ceb54-041b-493c-9a8d-d34f97020dc3","type":"Feature","properties":{"title":"1834 - List of Collieries on the Tyne and their prices in September 1834, including the prices of Cramlington  Colliery","url":"https://thecommonroom.org.uk/collection/collieries-on-the-tyne-and-coal-prices-16081/page-457-26910/#collection-gallery"},"geometry":{"type":"Point","coordinates":[-1.5660787,55.081275]}},{"@id":"https://w3id.org/Coal%20Maps%2024_08_23/103e6d2d-791f-40f6-a99a-c215c7e1abc4","type":"Feature","properties":{"title":"1834 - List of Collieries on the Tyne and their prices in September 1834, including the prices of Elswick  Colliery","url":"https://thecommonroom.org.uk/collection/collieries-on-the-tyne-and-coal-prices-16081/page-457-26910/#collection-gallery"},"geometry":{"type":"Point","coordinates":[-1.6413,54.972302]}},{"@id":"https://w3id.org/Coal%20Maps%2024_08_23/7aa74f95-64cb-48ec-a2cc-784e162e9b61","type":"Feature","properties":{"title":"1834 - List of Collieries on the Tyne and their prices in September 1834, including the prices of Fawdon  Colliery","url":"https://thecommonroom.org.uk/collection/collieries-on-the-tyne-and-coal-prices-16081/page-457-26910/#collection-gallery"},"geometry":{"type":"Point","coordinates":[-1.6460854,55.014362]}},{"@id":"https://w3id.org/Coal%20Maps%2024_08_23/84e11047-c3b0-46f6-8191-de99f11af2a0","type":"Feature","properties":{"title":"1834 - List of Collieries on the Tyne and their prices in September 1834, including the prices of Gosforth  Colliery","url":"https://thecommonroom.org.uk/collection/collieries-on-the-tyne-and-coal-prices-16081/page-457-26910/#collection-gallery"},"geometry":{"type":"Point","coordinates":[-1.6043975,55.007719]}},{"@id":"https://w3id.org/Coal%20Maps%2024_08_23/3803058e-aed3-415c-abf7-75e3554a0c99","type":"Feature","properties":{"title":"1834 - List of Collieries on the Tyne and their prices in September 1834, including the prices of Heaton  Colliery","url":"https://thecommonroom.org.uk/collection/collieries-on-the-tyne-and-coal-prices-16081/page-457-26910/#collection-gallery"},"geometry":{"type":"Point","coordinates":[-1.5883318,54.98866]}},{"@id":"https://w3id.org/Coal%20Maps%2024_08_23/14d11568-6ed2-4680-9986-6b856262d5a2","type":"Feature","properties":{"title":"1834 - List of Collieries on the Tyne and their prices in September 1834, including the prices of Holywell  Colliery","url":"https://thecommonroom.org.uk/collection/collieries-on-the-tyne-and-coal-prices-16081/page-457-26910/#collection-gallery"},"geometry":{"type":"Point","coordinates":[-1.5145528,55.067601]}},{"@id":"https://w3id.org/Coal%20Maps%2024_08_23/05497922-6d1a-47e5-9d81-3a91b5b03995","type":"Feature","properties":{"title":"1834 - List of Collieries on the Tyne and their prices in September 1834, including the prices of Monkseaton  Colliery","url":"https://thecommonroom.org.uk/collection/collieries-on-the-tyne-and-coal-prices-16081/page-457-26910/#collection-gallery"},"geometry":{"type":"Point","coordinates":[-1.4439813,55.040287]}},{"@id":"https://w3id.org/Coal%20Maps%2024_08_23/7da54b70-5138-4b66-81b3-ce597a160b85","type":"Feature","properties":{"title":"1834 - List of Collieries on the Tyne and their prices in September 1834, including the prices of Mount Moor Colliery in Springwell","url":"https://thecommonroom.org.uk/collection/collieries-on-the-tyne-and-coal-prices-16081/page-457-26910/#collection-gallery"},"geometry":{"type":"Point","coordinates":[-1.5563055,54.923846]}},{"@id":"https://w3id.org/Coal%20Maps%2024_08_23/fa8c9c34-3d87-47c4-b26e-6bf04813b6f4","type":"Feature","properties":{"title":"1834 - List of Collieries on the Tyne and their prices in September 1834, including the prices of Percy Main Colliery ","url":"https://thecommonroom.org.uk/collection/collieries-on-the-tyne-and-coal-prices-16081/page-457-26910/#collection-gallery"},"geometry":{"type":"Point","coordinates":[-1.4741032,54.997305]}},{"@id":"https://w3id.org/Coal%20Maps%2024_08_23/dfdca372-d8b2-4dfb-be33-fae3001732a0","type":"Feature","properties":{"title":"1834 - List of Collieries on the Tyne and their prices in September 1834, including the prices of Seghill Colliery ","url":"https://thecommonroom.org.uk/collection/collieries-on-the-tyne-and-coal-prices-16081/page-457-26910/#collection-gallery"},"geometry":{"type":"Point","coordinates":[-1.5474334,55.067845]}},{"@id":"https://w3id.org/Coal%20Maps%2024_08_23/bfae87bc-1776-44a1-b4ca-38574808d59a","type":"Feature","properties":{"title":"1834 - List of Collieries on the Tyne and their prices in September 1834, including the prices of Springwelll Colliery ","url":"https://thecommonroom.org.uk/collection/collieries-on-the-tyne-and-coal-prices-16081/page-457-26910/#collection-gallery"},"geometry":{"type":"Point","coordinates":[-1.5611038,54.910177]}},{"@id":"https://w3id.org/Coal%20Maps%2024_08_23/da398231-7a9e-4017-9153-ce89fad58083","type":"Feature","properties":{"title":"1834 - List of Collieries on the Tyne and their prices in September 1834, including the prices of St Lawrence Colliery in Byker","url":"https://thecommonroom.org.uk/collection/collieries-on-the-tyne-and-coal-prices-16081/page-457-26910/#collection-gallery"},"geometry":{"type":"Point","coordinates":[-1.5818615,54.970638]}},{"@id":"https://w3id.org/Coal%20Maps%2024_08_23/e6419be2-8211-447f-a699-91691ef1123a","type":"Feature","properties":{"title":"1834 - List of Collieries on the Tyne and their prices in September 1834, including the prices of Team Colliery","url":"https://thecommonroom.org.uk/collection/collieries-on-the-tyne-and-coal-prices-16081/page-457-26910/#collection-gallery"},"geometry":{"type":"Point","coordinates":[1.591741,54.917527]}},{"@id":"https://w3id.org/Coal%20Maps%2024_08_23/7df04488-12ed-4bae-8f1e-4ac1b3eceab4","type":"Feature","properties":{"title":"1834 - List of Collieries on the Tyne and their prices in September 1834, including the prices of Tanfield Lea & Garsfield Colliery","url":"https://thecommonroom.org.uk/collection/collieries-on-the-tyne-and-coal-prices-16081/page-457-26910/#collection-gallery"},"geometry":{"type":"Point","coordinates":[-1.7131944,54.87952]}},{"@id":"https://w3id.org/Coal%20Maps%2024_08_23/8ceee5e9-8344-498f-9013-c9f5dc8d3b27","type":"Feature","properties":{"title":"1834 - List of Collieries on the Tyne and their prices in September 1834, including the prices of Tanfield Moor Colliery","url":"https://thecommonroom.org.uk/collection/collieries-on-the-tyne-and-coal-prices-16081/page-457-26910/#collection-gallery"},"geometry":{"type":"Point","coordinates":[-1.6990648,54.891204]}},{"@id":"https://w3id.org/Coal%20Maps%2024_08_23/33918335-14fc-4f44-85f4-ae2210beb266","type":"Feature","properties":{"title":"1834 - List of Collieries on the Tyne and their prices in September 1834, including the prices of Usworth Colliery","url":"https://thecommonroom.org.uk/collection/collieries-on-the-tyne-and-coal-prices-16081/page-457-26910/#collection-gallery"},"geometry":{"type":"Point","coordinates":[-1.5099497,54.91868]}},{"@id":"https://w3id.org/Coal%20Maps%2024_08_23/da82f56b-113c-40ce-9410-5cff50dc2f3b","type":"Feature","properties":{"title":"1834 - List of Collieries on the Tyne and their prices in September 1834, including the prices of Tyne Main Colliery","url":"https://thecommonroom.org.uk/collection/collieries-on-the-tyne-and-coal-prices-16081/page-457-26910/#collection-gallery"},"geometry":{"type":"Point","coordinates":[-1.572941,54.962356]}},{"@id":"https://w3id.org/Coal%20Maps%2024_08_23/6c22ebd0-5601-4fd2-b68a-49c8e331d6b0","type":"Feature","properties":{"title":"1834 - List of Collieries on the Tyne and their prices in September 1834, including the prices of Waldridge Colliery","url":"https://thecommonroom.org.uk/collection/collieries-on-the-tyne-and-coal-prices-16081/page-457-26910/#collection-gallery"},"geometry":{"type":"Point","coordinates":[-1.610895,54.845015]}},{"@id":"https://w3id.org/Coal%20Maps%2024_08_23/5a9dd0e6-4a90-43a5-9d79-1d90c2d69616","type":"Feature","properties":{"title":"1834 - List of Collieries on the Tyne and their prices in September 1834, including the prices of Walker Colliery","url":"https://thecommonroom.org.uk/collection/collieries-on-the-tyne-and-coal-prices-16081/page-457-26910/#collection-gallery"},"geometry":{"type":"Point","coordinates":[-1.5427555,54.96985]}},{"@id":"https://w3id.org/Coal%20Maps%2024_08_23/0c4b552f-68a7-463d-9259-f9b58c17c5f8","type":"Feature","properties":{"title":"1834 - List of Collieries on the Tyne and their prices in September 1834, including the prices of Walbottle Colliery","url":"https://thecommonroom.org.uk/collection/collieries-on-the-tyne-and-coal-prices-16081/page-457-26910/#collection-gallery"},"geometry":{"type":"Point","coordinates":[-1.7383515,54.989928]}},{"@id":"https://w3id.org/Coal%20Maps%2024_08_23/fec5e521-e06e-4713-b300-36d34c9544dc","type":"Feature","properties":{"title":"1834 - List of Collieries on the Tyne and their prices in September 1834, including the prices of Willington Colliery","url":"https://thecommonroom.org.uk/collection/collieries-on-the-tyne-and-coal-prices-16081/page-457-26910/#collection-gallery"},"geometry":{"type":"Point","coordinates":[-1.6919675,54.701292]}},{"@id":"https://w3id.org/Coal%20Maps%2024_08_23/846e74dc-eea1-4369-9050-99b16feed157","type":"Feature","properties":{"title":"1834 - List of Collieries on the Tyne and their prices in September 1834, including the prices of Wideopen Colliery","url":"https://thecommonroom.org.uk/collection/collieries-on-the-tyne-and-coal-prices-16081/page-457-26910/#collection-gallery"},"geometry":{"type":"Point","coordinates":[-1.6180129,55.0459]}},{"@id":"https://w3id.org/Coal%20Maps%2024_08_23/6f378e9f-f019-4f0f-911d-ffd8031bde7f","type":"Feature","properties":{"title":"1834 - List of Collieries on the Tyne and their prices in September 1834, including the prices of Wylam Colliery","url":"https://thecommonroom.org.uk/collection/collieries-on-the-tyne-and-coal-prices-16081/page-457-26910/#collection-gallery"},"geometry":{"type":"Point","coordinates":[-1.8265635,54.9740905]}},{"@id":"https://w3id.org/Coal%20Maps%2024_08_23/977bc64c-9f86-47ac-b38e-2e581c13bfca","type":"Feature","properties":{"title":"1835 - Account of Coals at London Market including their prices. Medomsley Colliery is featured on the list. ","url":"https://thecommonroom.org.uk/collection/coals-at-london-market-16085/page-461-26914/#collection-gallery"},"geometry":{"type":"Point","coordinates":[-1.8223824,54.877032]}},{"@id":"https://w3id.org/Coal%20Maps%2024_08_23/53847748-4e71-4bfa-b402-3ce8ea00dfb9","type":"Feature","properties":{"title":"1835 - Account of Coals at London Market including their prices. Stormont Main Colliery is featured on the list. ","url":"https://thecommonroom.org.uk/collection/coals-at-london-market-16085/page-461-26914/#collection-gallery"},"geometry":{"type":"Point","coordinates":[-1.5711668,54.926083]}},{"@id":"https://w3id.org/Coal%20Maps%2024_08_23/a3150ee6-1e4a-4f07-a8b9-da95c875ca71","type":"Feature","properties":{"title":"1835 - A letter from the Editor of the Newcastle Journal regarding the Morpeth Railroad and the Coal Trade","url":"https://thecommonroom.org.uk/collection/morpeth-railroad-and-the-coal-trade-16087/page-463-464-26916/"},"geometry":{"type":"Point","coordinates":[-1.683159,55.16226]}},{"@id":"https://w3id.org/Coal%20Maps%2024_08_23/fb677e9a-b9cf-4389-b94d-185849998458","type":"Feature","properties":{"title":"1835 - Account of Coals at London Market including their prices. Bradley Colliery is featured on the list. ","url":"https://thecommonroom.org.uk/collection/coals-at-london-market-16085/page-461-26914/#collection-gallery"},"geometry":{"type":"Point","coordinates":[-1.8085001,54.859811]}},{"@id":"https://w3id.org/Coal%20Maps%2024_08_23/471903ae-7a36-48d8-89fd-10d120faf15a","type":"Feature","properties":{"title":"1835 - Account of Coals at London Market including their prices. Ellison Low Main (sometimes reffered to as Sheriff's Hill)is featured on the list. ","url":"https://thecommonroom.org.uk/collection/coals-at-london-market-16085/page-461-26914/#collection-gallery"},"geometry":{"type":"Point","coordinates":[-1.6006493,54.933246]}},{"@id":"https://w3id.org/Coal%20Maps%2024_08_23/a5aee90c-90c9-4dd9-b150-2ed883a63d25","type":"Feature","properties":{"title":"1835 - Account of Coals at London Market including their prices. East Percy Colliery is featured on the list. ","url":"https://thecommonroom.org.uk/collection/coals-at-london-market-16085/page-461-26914/#collection-gallery"},"geometry":{"type":"Point","coordinates":[-1.49026,55.004646]}},{"@id":"https://w3id.org/Coal%20Maps%2024_08_23/2ca5c1cc-d795-490d-9a40-142f78938ca6","type":"Feature","properties":{"title":"1835 - Account of Coals at London Market including their prices. Felling Colliery is featured on the list. ","url":"https://thecommonroom.org.uk/collection/coals-at-london-market-16085/page-461-26914/#collection-gallery"},"geometry":{"type":"Point","coordinates":[-1.5721357,54.955364]}},{"@id":"https://w3id.org/Coal%20Maps%2024_08_23/12be6e88-d63d-42ec-b8dc-3f6b0d8ba65b","type":"Feature","properties":{"title":"1835 - Account of Coals at London Market including their prices. Garesfield Colliery is featured on the list. ","url":"https://thecommonroom.org.uk/collection/coals-at-london-market-16085/page-461-26914/#collection-gallery"},"geometry":{"type":"Point","coordinates":[-1.7839821,54.932416]}},{"@id":"https://w3id.org/Coal%20Maps%2024_08_23/25e1a7dd-d463-493e-add0-ee3ace68ab42","type":"Feature","properties":{"title":"1835 - Account of Coals at London Market including their prices. Hebburn Colliery is featured on the list. ","url":"https://thecommonroom.org.uk/collection/coals-at-london-market-16085/page-461-26914/#collection-gallery"},"geometry":{"type":"Point","coordinates":[-1.5102967,54.98262]}},{"@id":"https://w3id.org/Coal%20Maps%2024_08_23/a1e4e049-0c48-44f1-a25b-2cc8737484de","type":"Feature","properties":{"title":"1835 - Account of Coals at London Market including their prices. Hollywell Colliery is featured on the list. ","url":"https://thecommonroom.org.uk/collection/coals-at-london-market-16085/page-461-26914/#collection-gallery"},"geometry":{"type":"Point","coordinates":[-1.5145528,55.067601]}},{"@id":"https://w3id.org/Coal%20Maps%2024_08_23/06291d56-db0e-4bb5-bf99-6fe0f5527abf","type":"Feature","properties":{"title":"1835 - Account of Coals at London Market including their prices. Redheugh Colliery is featured on the list. ","url":"https://thecommonroom.org.uk/collection/coals-at-london-market-16085/page-461-26914/#collection-gallery"},"geometry":{"type":"Point","coordinates":[-1.6190847,54.957586]}},{"@id":"https://w3id.org/Coal%20Maps%2024_08_23/39b6f76f-b18c-45fd-ab2a-4ca515df507c","type":"Feature","properties":{"title":"1835 - Account of Coals at London Market including their prices. Pelaw Colliery is featured on the list. ","url":"https://thecommonroom.org.uk/collection/coals-at-london-market-16085/page-461-26914/#collection-gallery"},"geometry":{"type":"Point","coordinates":[-1.5891288,54.864561]}},{"@id":"https://w3id.org/Coal%20Maps%2024_08_23/a09c36d2-c76e-4965-826e-56094cd01512","type":"Feature","properties":{"title":"1835 - Account of Coals at London Market including their prices. Pontop Colliery is featured on the list. ","url":"https://thecommonroom.org.uk/collection/coals-at-london-market-16085/page-461-26914/#collection-gallery"},"geometry":{"type":"Point","coordinates":[-1.747836,54.860366]}},{"@id":"https://w3id.org/Coal%20Maps%2024_08_23/9ecfdff1-fc6b-4502-adbc-fbb770aa93c6","type":"Feature","properties":{"title":"1835 - Account of Coals at London Market including their prices. Shipcote Colliery is featured on the list. ","url":"https://thecommonroom.org.uk/collection/coals-at-london-market-16085/page-461-26914/#collection-gallery"},"geometry":{"type":"Point","coordinates":[-1.5961291,54.959166]}},{"@id":"https://w3id.org/Coal%20Maps%2024_08_23/c0db7459-af0c-420e-ba10-3ff5e772f2c7","type":"Feature","properties":{"title":"1835 - Account of Coals at London Market including their prices. Hartley Colliery is featured on the list. ","url":"https://thecommonroom.org.uk/collection/coals-at-london-market-16085/page-461-26914/#collection-gallery"},"geometry":{"type":"Point","coordinates":[-1.514167,55.083889]}},{"@id":"https://w3id.org/Coal%20Maps%2024_08_23/84a9b052-2a20-49ff-b59b-e821edd6ad99","type":"Feature","properties":{"title":"1835 - Account of Coals at London Market including their prices. Willington Colliery is featured on the list. ","url":"https://thecommonroom.org.uk/collection/coals-at-london-market-16085/page-461-26914/#collection-gallery"},"geometry":{"type":"Point","coordinates":[-1.6919675,54.701292]}},{"@id":"https://w3id.org/Coal%20Maps%2024_08_23/214cc6fd-7de0-46dc-9fbf-6071aa185264","type":"Feature","properties":{"title":"1835 - Account of Coals at London Market including their prices. Wylam Colliery is featured on the list. ","url":"https://thecommonroom.org.uk/collection/coals-at-london-market-16085/page-461-26914/#collection-gallery"},"geometry":{"type":"Point","coordinates":[-1.8265635,54.9740905]}},{"@id":"https://w3id.org/Coal%20Maps%2024_08_23/e46f2a1b-7364-460c-9aac-860ba2e60c42","type":"Feature","properties":{"title":"1835 - Account of Coals at London Market including their prices. Wallsend Colliery is featured on the list. ","url":"https://thecommonroom.org.uk/collection/coals-at-london-market-16085/page-461-26914/#collection-gallery"},"geometry":{"type":"Point","coordinates":[-1.5170374,54.991228]}},{"@id":"https://w3id.org/Coal%20Maps%2024_08_23/5664c0c9-e39b-4bb9-acb5-1e339c212558","type":"Feature","properties":{"title":"1835 - Account of Coals at London Market including their prices. Waldridge Colliery is featured on the list. ","url":"https://thecommonroom.org.uk/collection/coals-at-london-market-16085/page-461-26914/#collection-gallery"},"geometry":{"type":"Point","coordinates":[-1.610895,-1.610895]}},{"@id":"https://w3id.org/Coal%20Maps%2024_08_23/a3bb30e9-a85d-4005-ae7a-e141456d9c28","type":"Feature","properties":{"title":"1835 - Account of Coals at London Market including their prices. Howden Colliery is featured on the list. ","url":"https://thecommonroom.org.uk/collection/coals-at-london-market-16085/page-461-26914/#collection-gallery"},"geometry":{"type":"Point","coordinates":[-1.484939,54.992157]}},{"@id":"https://w3id.org/Coal%20Maps%2024_08_23/b8dded9b-f946-4ebe-b6ce-a13d0a2cf4fe","type":"Feature","properties":{"title":"1835 - Account of Coals at London Market including their prices. Gosforth Colliery is featured on the list. ","url":"https://thecommonroom.org.uk/collection/coals-at-london-market-16085/page-461-26914/#collection-gallery"},"geometry":{"type":"Point","coordinates":[-1.6043975,55.007719]}},{"@id":"https://w3id.org/Coal%20Maps%2024_08_23/f8b33eef-3960-4251-af85-32b043c36423","type":"Feature","properties":{"title":"1835 - Account of Coals at London Market including their prices. Heaton Colliery is featured on the list. ","url":"https://thecommonroom.org.uk/collection/coals-at-london-market-16085/page-461-26914/#collection-gallery"},"geometry":{"type":"Point","coordinates":[-1.5883318,54.98866]}},{"@id":"https://w3id.org/Coal%20Maps%2024_08_23/315e6699-5215-409a-912a-b6f164b86523","type":"Feature","properties":{"title":"1835 - Account of Coals at London Market including their prices. Hilda Colliery is featured on the list. ","url":"https://thecommonroom.org.uk/collection/coals-at-london-market-16085/page-461-26914/#collection-gallery"},"geometry":{"type":"Point","coordinates":[-1.4352215,54.994417]}},{"@id":"https://w3id.org/Coal%20Maps%2024_08_23/0d4e3720-acd6-4e4c-bb69-92b7c22eeac1","type":"Feature","properties":{"title":"1835 - Account of Coals at London Market including their prices. Lanchester Colliery is featured on the list. ","url":"https://thecommonroom.org.uk/collection/coals-at-london-market-16085/page-461-26914/#collection-gallery"},"geometry":{"type":"Point","coordinates":[-1.7594832,54.827185]}},{"@id":"https://w3id.org/Coal%20Maps%2024_08_23/8ee1cc7d-6745-45a2-88b4-b4834e3cbf22","type":"Feature","properties":{"title":"1835 - Account of Coals at London Market including their prices. Walker Colliery is featured on the list. ","url":"https://thecommonroom.org.uk/collection/coals-at-london-market-16085/page-461-26914/#collection-gallery"},"geometry":{"type":"Point","coordinates":[-1.5427555,54.96985]}},{"@id":"https://w3id.org/Coal%20Maps%2024_08_23/92c5c34c-6d94-47c8-b55a-823e6d088cd6","type":"Feature","properties":{"title":"1835 - Account of Coals at London Market including their prices. Killingworth Colliery is featured on the list. ","url":"https://thecommonroom.org.uk/collection/coals-at-london-market-16085/page-461-26914/#collection-gallery"},"geometry":{"type":"Point","coordinates":[-1.5540852,55.030073]}},{"@id":"https://w3id.org/Coal%20Maps%2024_08_23/dd2263f9-9af1-4272-8340-999cbe88c880","type":"Feature","properties":{"title":"1835 - Account of Coals at London Market including their prices. Peareth Colliery is featured on the list. ","url":"https://thecommonroom.org.uk/collection/coals-at-london-market-16085/page-461-26914/#collection-gallery"},"geometry":{"type":"Point","coordinates":[-1.5196812,54.877022]}},{"@id":"https://w3id.org/Coal%20Maps%2024_08_23/92248830-ae4e-406c-9b39-f1c301eadda0","type":"Feature","properties":{"title":"1835 - Account of Coals at London Market including their prices. Chirton Colliery is featured on the list. ","url":"https://thecommonroom.org.uk/collection/coals-at-london-market-16085/page-461-26914/#collection-gallery"},"geometry":{"type":"Point","coordinates":[-1.4540994,55.006194]}},{"@id":"https://w3id.org/Coal%20Maps%2024_08_23/b0797824-91af-4610-9fcd-5884801792f2","type":"Feature","properties":{"title":"1835 - Account of Coals at London Market including their prices. Russell's Wallsend Pit is featured on the list. ","url":"https://thecommonroom.org.uk/collection/coals-at-london-market-16085/page-461-26914/#collection-gallery"},"geometry":{"type":"Point","coordinates":[-1.5171472,54.991193]}},{"@id":"https://w3id.org/Coal%20Maps%2024_08_23/1facef47-41fc-4d93-9157-a687a20e4ece","type":"Feature","properties":{"title":"1835 - Account of Coals at London Market including their prices. Eden Main Pit is featured on the list. ","url":"https://thecommonroom.org.uk/collection/coals-at-london-market-16085/page-461-26914/#collection-gallery"},"geometry":{"type":"Point","coordinates":[-1.5171472,54.991193]}},{"@id":"https://w3id.org/Coal%20Maps%2024_08_23/3bbc86e8-05ca-440a-82c9-afd440bda0cd","type":"Feature","properties":{"title":"1835 - Account of Coals at London Market including their prices. Hetton Colliery is featured on the list. ","url":"https://thecommonroom.org.uk/collection/coals-at-london-market-16085/page-461-26914/#collection-gallery"},"geometry":{"type":"Point","coordinates":[-1.4420939,54.816481]}},{"@id":"https://w3id.org/Coal%20Maps%2024_08_23/fb7bc9ec-5d2e-4892-b732-851ed606bd24","type":"Feature","properties":{"title":"1835 - Account of Coals at London Market including their prices. Lambton Colliery is featured on the list. ","url":"https://thecommonroom.org.uk/collection/coals-at-london-market-16085/page-461-26914/#collection-gallery"},"geometry":{"type":"Point","coordinates":[-1.506311,54.850099]}},{"@id":"https://w3id.org/Coal%20Maps%2024_08_23/1f7de369-2560-49b5-95f6-8607a3e7a3bb","type":"Feature","properties":{"title":"1835 - Account of Coals at London Market including their prices. Haswell Colliery is featured on the list. ","url":"https://thecommonroom.org.uk/collection/coals-at-london-market-16085/page-461-26914/#collection-gallery"},"geometry":{"type":"Point","coordinates":[-1.420204,54.773719]}},{"@id":"https://w3id.org/Coal%20Maps%2024_08_23/7220dc13-4f48-48eb-943d-3635251caec5","type":"Feature","properties":{"title":"1835 - Account of Coals at London Market including their prices. Deanery Colliery is featured on the list. ","url":"https://thecommonroom.org.uk/collection/coals-at-london-market-16085/page-461-26914/#collection-gallery"},"geometry":{"type":"Point","coordinates":[-1.6582245,54.643166]}},{"@id":"https://w3id.org/Coal%20Maps%2024_08_23/1fa637c7-cd27-41d6-9ea9-866f9e9a566f","type":"Feature","properties":{"title":"1835 - Account of Coals at London Market including their prices. St Helen's Colliery is featured on the list. ","url":"https://thecommonroom.org.uk/collection/coals-at-london-market-16085/page-461-26914/#collection-gallery"},"geometry":{"type":"Point","coordinates":[-1.6978546,54.637744]}},{"@id":"https://w3id.org/Coal%20Maps%2024_08_23/0a03298b-5d19-4b10-8af8-25a9ca43c039","type":"Feature","properties":{"title":"1835 - Account of Coals at London Market including their prices. Tanfield Colliery is featured on the list. ","url":"https://thecommonroom.org.uk/collection/coals-at-london-market-16085/page-461-26914/#collection-gallery"},"geometry":{"type":"Point","coordinates":[-1.6990648,54.891204]}},{"@id":"https://w3id.org/Coal%20Maps%2024_08_23/f582ebc5-e40d-485b-b471-9e8528725880","type":"Feature","properties":{"title":"1835 - Account of Coals at London Market including their prices. Adelaide Colliery is featured on the list. ","url":"https://thecommonroom.org.uk/collection/coals-at-london-market-16085/page-461-26914/#collection-gallery"},"geometry":{"type":"Point","coordinates":[-1.6637188,54.643945]}},{"@id":"https://w3id.org/Coal%20Maps%2024_08_23/87b70a83-a05f-4e93-8df9-50ce4617f000","type":"Feature","properties":{"title":"1835 - Account of Coals at London Market including their prices. Butterknowle Colliery is featured on the list. ","url":"https://thecommonroom.org.uk/collection/coals-at-london-market-16085/page-461-26914/#collection-gallery"},"geometry":{"type":"Point","coordinates":[-1.8342394,54.626325]}},{"@id":"https://w3id.org/Coal%20Maps%2024_08_23/68132098-7384-4097-ba55-ab1da5cc5a00","type":"Feature","properties":{"title":"1835 - Account of Coals at London Market including their prices. Gordon House Colliery is featured on the list. ","url":"https://thecommonroom.org.uk/collection/coals-at-london-market-16085/page-461-26914/#collection-gallery"},"geometry":{"type":"Point","coordinates":[-1.7986778,54.61369]}},{"@id":"https://w3id.org/Coal%20Maps%2024_08_23/de3ed699-4e04-4bd4-881d-466e04e29705","type":"Feature","properties":{"title":"1835 - Account of Coals at London Market including their prices. South Durham Colliery is featured on the list. ","url":"https://thecommonroom.org.uk/collection/coals-at-london-market-16085/page-461-26914/#collection-gallery"},"geometry":{"type":"Point","coordinates":[-1.629722222,54.64638889]}},{"@id":"https://w3id.org/Coal%20Maps%2024_08_23/26fbab7a-6897-4747-9797-ba8213685c80","type":"Feature","properties":{"title":"1835 - Account of Coals at London Market including their prices. North Tees Colliery is featured on the list. ","url":"https://thecommonroom.org.uk/collection/coals-at-london-market-16085/page-461-26914/#collection-gallery"},"geometry":{"type":"Point","coordinates":[-1.8115319,54.542634]}},{"@id":"https://w3id.org/Coal%20Maps%2024_08_23/c0d24d56-39f3-4d1d-bd46-cb196cfba5ed","type":"Feature","properties":{"title":"1835 - Account of Coals at London Market including their prices. West Hetton Colliery is featured on the list. ","url":"https://thecommonroom.org.uk/collection/coals-at-london-market-16085/page-461-26914/#collection-gallery"},"geometry":{"type":"Point","coordinates":[-1.4999758,54.728754]}},{"@id":"https://w3id.org/Coal%20Maps%2024_08_23/480b3eb9-be62-4a87-90d0-0d287487a16d","type":"Feature","properties":{"title":"1835 - Account of Coals at London Market including their prices. Victoria Colliery is featured on the list. ","url":"https://thecommonroom.org.uk/collection/coals-at-london-market-16085/page-461-26914/#collection-gallery"},"geometry":{"type":"Point","coordinates":[-1.8250156,54.610136]}},{"@id":"https://w3id.org/Coal%20Maps%2024_08_23/320d781f-d3ab-447a-a058-030bd3ec0524","type":"Feature","properties":{"title":"1835 - Account of Coals at London Market including their prices. Cowpen Colliery is featured on the list. ","url":"https://thecommonroom.org.uk/collection/coals-at-london-market-16085/page-461-26914/#collection-gallery"},"geometry":{"type":"Point","coordinates":[-1.5315941,55.119509]}},{"@id":"https://w3id.org/Coal%20Maps%2024_08_23/175edbfa-6f0e-4618-8cb3-58a7fd73ce16","type":"Feature","properties":{"title":"1835 - Account of Coals at London Market including their prices. Cowpen Colliery is featured on the list. ","url":"https://thecommonroom.org.uk/collection/coals-at-london-market-16085/page-461-26914/#collection-gallery"},"geometry":{"type":"Point","coordinates":[-1.514167,55.083889]}},{"@id":"https://w3id.org/Coal%20Maps%2024_08_23/50c00e5f-ee94-42ad-9d67-a5cfc3604716","type":"Feature","properties":{"title":"1835 - Account of Coals at London Market including their prices. Warbro Park Colliery is featured on the list. ","url":"https://thecommonroom.org.uk/collection/coals-at-london-market-16085/page-461-26914/#collection-gallery"},"geometry":{"type":"Point","coordinates":[-1.46646,53.51773]}},{"@id":"https://w3id.org/Coal%20Maps%2024_08_23/ee74c8cd-a602-4fed-b081-2ae68199e4ac","type":"Feature","properties":{"title":"1835 - Account of Coals at London Market including their prices. Netherton Colliery's Howard Pit is featured on the list. ","url":"https://thecommonroom.org.uk/collection/coals-at-london-market-16085/page-461-26914/#collection-gallery"},"geometry":{"type":"Point","coordinates":[-1.6263354,55.137053]}},{"@id":"https://w3id.org/Coal%20Maps%2024_08_23/1e3f412b-7be9-410d-aecc-428dad4b1f9a","type":"Feature","properties":{"title":"1835 - Account of Coals at London Market including their prices. Silkstone Colliery's Howard Pit is featured on the list. ","url":"https://thecommonroom.org.uk/collection/coals-at-london-market-16085/page-461-26914/#collection-gallery"},"geometry":{"type":"Point","coordinates":[-1.5642989,53.543188]}},{"@id":"https://w3id.org/Coal%20Maps%2024_08_23/424d5e44-9e59-4701-842c-d3d0eb8cf1a9","type":"Feature","properties":{"title":"1835 - Account of Coals at London Market including their prices. Gawber Hall Colliery is featured on the list. ","url":"https://thecommonroom.org.uk/collection/coals-at-london-market-16085/page-461-26914/#collection-gallery"},"geometry":{"type":"Point","coordinates":[-1.4962133,53.542921]}},{"@id":"https://w3id.org/Coal%20Maps%2024_08_23/f9bc1423-2c95-4379-b7a4-09df26fb2fdf","type":"Feature","properties":{"title":"1835 - Account of Coals at London Market including their prices. Tranent Colliery is featured on the list. ","url":"https://thecommonroom.org.uk/collection/coals-at-london-market-16085/page-461-26914/#collection-gallery"},"geometry":{"type":"Point","coordinates":[-2.9387449,55.94361]}},{"@id":"https://w3id.org/Coal%20Maps%2024_08_23/fb9c2f76-2e44-4302-8a1d-2e0e17e6ba23","type":"Feature","properties":{"title":"1835 - Account of Coals at London Market including their prices. Flockton Colliery is featured on the list. ","url":"https://thecommonroom.org.uk/collection/coals-at-london-market-16085/page-461-26914/#collection-gallery"},"geometry":{"type":"Point","coordinates":[-1.631,53.632]}},{"@id":"https://w3id.org/Coal%20Maps%2024_08_23/dec442cc-95db-4a75-bc08-2da6dbe7324f","type":"Feature","properties":{"title":"1831 - Handbill giving an account of the meeting of pitmen on the Town Moor where they voiced complaints abour working conditions and wages","url":"https://thecommonroom.org.uk/collection/handbill-giving-an-account-of-the-meeting-of-pitmen-on-the-town-moor-16404/page-218-219-27234/#collection-gallery"},"geometry":{"type":"Point","coordinates":[-1.633,54.992]}},{"@id":"https://w3id.org/Coal%20Maps%2024_08_23/c17ab2dc-5628-4cf0-8676-034040f9128c","type":"Feature","properties":{"title":"1837 - A document listing the quantity of coal shipped from English, Scottish and Irish ports in 1836 and 1837. Port of Dover appears on the list","url":"https://thecommonroom.org.uk/collection/coal-shipped-from-english-scottish-and-irish-ports-16113/page-499-504-26942/#collection-gallery"},"geometry":{"type":"Point","coordinates":[1.329444,51.119167]}},{"@id":"https://w3id.org/Coal%20Maps%2024_08_23/925bc7fe-d2e6-435d-bcd0-30a948c101f0","type":"Feature","properties":{"title":"1837 - A document listing the quantity of coal shipped from English, Scottish and Irish ports in 1836 and 1837. Shoreham Port ppears on the list","url":"https://thecommonroom.org.uk/collection/coal-shipped-from-english-scottish-and-irish-ports-16113/page-499-504-26942/#collection-gallery"},"geometry":{"type":"Point","coordinates":[-0.2381705,50.831132]}},{"@id":"https://w3id.org/Coal%20Maps%2024_08_23/8a25f433-81cf-4bc8-b39c-fcca7e33e1af","type":"Feature","properties":{"title":"1837 - A document listing the quantity of coal shipped from English, Scottish and Irish ports in 1836 and 1837. Portsmouth Port ppears on the list","url":"https://thecommonroom.org.uk/collection/coal-shipped-from-english-scottish-and-irish-ports-16113/page-499-504-26942/#collection-gallery"},"geometry":{"type":"Point","coordinates":[-1.090738,50.812037]}},{"@id":"https://w3id.org/Coal%20Maps%2024_08_23/616b9e61-a639-4aba-979d-74bdb56fffd0","type":"Feature","properties":{"title":"1837 - A document listing the quantity of coal shipped from English, Scottish and Irish ports in 1836 and 1837. Poole Port ppears on the list","url":"https://thecommonroom.org.uk/collection/coal-shipped-from-english-scottish-and-irish-ports-16113/page-499-504-26942/#collection-gallery"},"geometry":{"type":"Point","coordinates":[-1.99248,50.7096]}},{"@id":"https://w3id.org/Coal%20Maps%2024_08_23/f664caf4-1b36-4905-8117-c4e4465e4c80","type":"Feature","properties":{"title":"1837 - A document listing the quantity of coal shipped from English, Scottish and Irish ports in 1836 and 1837. Dartmouth Harbour ppears on the list","url":"https://thecommonroom.org.uk/collection/coal-shipped-from-english-scottish-and-irish-ports-16113/page-499-504-26942/#collection-gallery"},"geometry":{"type":"Point","coordinates":[-3.577778,50.351667]}},{"@id":"https://w3id.org/Coal%20Maps%2024_08_23/6ff44955-919d-40af-924d-afcd0451f431","type":"Feature","properties":{"title":"1837 - A document listing the quantity of coal shipped from English, Scottish and Irish ports in 1836 and 1837. Plymouth Harbour ppears on the list","url":"https://thecommonroom.org.uk/collection/coal-shipped-from-english-scottish-and-irish-ports-16113/page-499-504-26942/#collection-gallery"},"geometry":{"type":"Point","coordinates":[-4.15434,50.3678]}},{"@id":"https://w3id.org/Coal%20Maps%2024_08_23/37cc587c-3191-4726-94dd-65b173c0cb65","type":"Feature","properties":{"title":"1837 - A document listing the quantity of coal shipped from English, Scottish and Irish ports in 1836 and 1837. Falmouth Port ppears on the list","url":"https://thecommonroom.org.uk/collection/coal-shipped-from-english-scottish-and-irish-ports-16113/page-499-504-26942/#collection-gallery"},"geometry":{"type":"Point","coordinates":[-5.05566,50.1523]}},{"@id":"https://w3id.org/Coal%20Maps%2024_08_23/51c30eba-9dfe-465a-b331-d5347adba46d","type":"Feature","properties":{"title":"1837 - A document listing the quantity of coal shipped from English, Scottish and Irish ports in 1836 and 1837. Port of Bristol ppears on the list","url":"https://thecommonroom.org.uk/collection/coal-shipped-from-english-scottish-and-irish-ports-16113/page-499-504-26942/#collection-gallery"},"geometry":{"type":"Point","coordinates":[-2.71621,51.50329]}},{"@id":"https://w3id.org/Coal%20Maps%2024_08_23/208de2e6-0969-4128-b1a3-ccb9805f431f","type":"Feature","properties":{"title":"1837 - A document listing the quantity of coal shipped from English, Scottish and Irish ports in 1836 and 1837. Gloucester Harbour appears on the list","url":"https://thecommonroom.org.uk/collection/coal-shipped-from-english-scottish-and-irish-ports-16113/page-499-504-26942/#collection-gallery"},"geometry":{"type":"Point","coordinates":[-2.251944,51.8625]}},{"@id":"https://w3id.org/Coal%20Maps%2024_08_23/44a96241-6eb6-455e-859c-a5452f7cf937","type":"Feature","properties":{"title":"1837 - A document listing the quantity of coal shipped from English, Scottish and Irish ports in 1836 and 1837. The port of Cardiff (Cardiff Docks) appears on the list","url":"https://thecommonroom.org.uk/collection/coal-shipped-from-english-scottish-and-irish-ports-16113/page-499-504-26942/#collection-gallery"},"geometry":{"type":"Point","coordinates":[-3.15382,51.46533]}},{"@id":"https://w3id.org/Coal%20Maps%2024_08_23/6a9ba9d6-bc18-4be3-b9bc-2084323b0878","type":"Feature","properties":{"title":"1837 - A document listing the quantity of coal shipped from English, Scottish and Irish ports in 1836 and 1837. The port of Newport appears on the list","url":"https://thecommonroom.org.uk/collection/coal-shipped-from-english-scottish-and-irish-ports-16113/page-499-504-26942/#collection-gallery"},"geometry":{"type":"Point","coordinates":[-2.9846617,51.565256]}},{"@id":"https://w3id.org/Coal%20Maps%2024_08_23/31f20e8b-e907-4aed-9876-863a63a76e6b","type":"Feature","properties":{"title":"1837 - A document listing the quantity of coal shipped from English, Scottish and Irish ports in 1836 and 1837. Swansea Port appears on the list","url":"https://thecommonroom.org.uk/collection/coal-shipped-from-english-scottish-and-irish-ports-16113/page-499-504-26942/#collection-gallery"},"geometry":{"type":"Point","coordinates":[-3.91844,51.61646]}},{"@id":"https://w3id.org/Coal%20Maps%2024_08_23/27d859aa-9097-43fe-b808-dafda49ecbfa","type":"Feature","properties":{"title":"1837 - A document listing the quantity of coal shipped from English, Scottish and Irish ports in 1836 and 1837. Llanelli (or Llanelly) docks appears on the list","url":"https://thecommonroom.org.uk/collection/coal-shipped-from-english-scottish-and-irish-ports-16113/page-499-504-26942/#collection-gallery"},"geometry":{"type":"Point","coordinates":[-4.17322,51.67522]}},{"@id":"https://w3id.org/Coal%20Maps%2024_08_23/2c07f0dc-b62d-4125-98cd-a21d80f7be39","type":"Feature","properties":{"title":"1837 - A document listing the quantity of coal shipped from English, Scottish and Irish ports in 1836 and 1837. Milford Port appears on the list","url":"https://thecommonroom.org.uk/collection/coal-shipped-from-english-scottish-and-irish-ports-16113/page-499-504-26942/#collection-gallery"},"geometry":{"type":"Point","coordinates":[-5.052376,51.70778]}},{"@id":"https://w3id.org/Coal%20Maps%2024_08_23/234218ed-c371-4130-aaed-f26a5dd73bee","type":"Feature","properties":{"title":"1837 - A document listing the quantity of coal shipped from English, Scottish and Irish ports in 1836 and 1837. Chester Old Port appears on the list","url":"https://thecommonroom.org.uk/collection/coal-shipped-from-english-scottish-and-irish-ports-16113/page-499-504-26942/#collection-gallery"},"geometry":{"type":"Point","coordinates":[-2.9023864,53.190852]}},{"@id":"https://w3id.org/Coal%20Maps%2024_08_23/8e1c5bc7-990e-4304-b872-cdc433df9e4e","type":"Feature","properties":{"title":"1837 - A document listing the quantity of coal shipped from English, Scottish and Irish ports in 1836 and 1837. Liverpool Port appears on the list","url":"https://thecommonroom.org.uk/collection/coal-shipped-from-english-scottish-and-irish-ports-16113/page-499-504-26942/#collection-gallery"},"geometry":{"type":"Point","coordinates":[-2.996,53.406]}},{"@id":"https://w3id.org/Coal%20Maps%2024_08_23/a172a967-e504-4f27-bd5c-b6a511ba490a","type":"Feature","properties":{"title":"1837 - A document listing the quantity of coal shipped from English, Scottish and Irish ports in 1836 and 1837. Lancaster Port appears on the list","url":"https://thecommonroom.org.uk/collection/coal-shipped-from-english-scottish-and-irish-ports-16113/page-499-504-26942/#collection-gallery"},"geometry":{"type":"Point","coordinates":[-2.8499743,53.998822]}},{"@id":"https://w3id.org/Coal%20Maps%2024_08_23/d404fa01-3ffe-4fb1-90b5-4056fa3f7fe3","type":"Feature","properties":{"title":"1837 - A document listing the quantity of coal shipped from English, Scottish and Irish ports in 1836 and 1837. Whitehaven Port appears on the list","url":"https://thecommonroom.org.uk/collection/coal-shipped-from-english-scottish-and-irish-ports-16113/page-499-504-26942/#collection-gallery"},"geometry":{"type":"Point","coordinates":[-3.593807,54.55091]}},{"@id":"https://w3id.org/Coal%20Maps%2024_08_23/39866258-03e7-4777-9979-ceb43ad70d70","type":"Feature","properties":{"title":"1837 - A document listing the quantity of coal shipped from English, Scottish and Irish ports in 1836 and 1837. Port of Carlise appears on the list","url":"https://thecommonroom.org.uk/collection/coal-shipped-from-english-scottish-and-irish-ports-16113/page-499-504-26942/#collection-gallery"},"geometry":{"type":"Point","coordinates":[-3.1865323,54.948652]}},{"@id":"https://w3id.org/Coal%20Maps%2024_08_23/effa7378-417f-4ae1-add7-c54c629e4570","type":"Feature","properties":{"title":"1837 - A document listing the quantity of coal shipped from English, Scottish and Irish ports in 1836 and 1837. Port of Berwick appears on the list","url":"https://thecommonroom.org.uk/collection/coal-shipped-from-english-scottish-and-irish-ports-16113/page-499-504-26942/#collection-gallery"},"geometry":{"type":"Point","coordinates":[-2.002389,55.76389]}},{"@id":"https://w3id.org/Coal%20Maps%2024_08_23/2dd62e08-4596-4586-a47e-3fb13f1aa364","type":"Feature","properties":{"title":"1837 - A document listing the quantity of coal shipped from English, Scottish and Irish ports in 1836 and 1837. Port of Newcastle (now Port of the Tyne) appears on the list","url":"https://thecommonroom.org.uk/collection/coal-shipped-from-english-scottish-and-irish-ports-16113/page-499-504-26942/#collection-gallery"},"geometry":{"type":"Point","coordinates":[-1.4527902,54.992471]}},{"@id":"https://w3id.org/Coal%20Maps%2024_08_23/bb9c8a64-c0c2-40f6-8a1d-0be7350eb971","type":"Feature","properties":{"title":"1837 - A document listing the quantity of coal shipped from English, Scottish and Irish ports in 1836 and 1837. Sunderland Port appears on the list","url":"https://thecommonroom.org.uk/collection/coal-shipped-from-english-scottish-and-irish-ports-16113/page-499-504-26942/#collection-gallery"},"geometry":{"type":"Point","coordinates":[-1.381408,54.91129]}},{"@id":"https://w3id.org/Coal%20Maps%2024_08_23/18eacfbd-8950-42dd-aa39-1447d494318a","type":"Feature","properties":{"title":"1837 - A document listing the quantity of coal shipped from English, Scottish and Irish ports in 1836 and 1837. Stockton Port, which has now closed appears on the list","url":"https://thecommonroom.org.uk/collection/coal-shipped-from-english-scottish-and-irish-ports-16113/page-499-504-26942/#collection-gallery"},"geometry":{"type":"Point","coordinates":[-1.308264,54.56527]}},{"@id":"https://w3id.org/Coal%20Maps%2024_08_23/e9c6863d-0f7d-4353-8bc1-1b5beb0ac43b","type":"Feature","properties":{"title":"1837 - A document listing the quantity of coal shipped from English, Scottish and Irish ports in 1836 and 1837. Hull Port appears on the list","url":"https://thecommonroom.org.uk/collection/coal-shipped-from-english-scottish-and-irish-ports-16113/page-499-504-26942/#collection-gallery"},"geometry":{"type":"Point","coordinates":[-0.2797584,53.74237]}},{"@id":"https://w3id.org/Coal%20Maps%2024_08_23/d2fc475e-11d0-42b7-8ff4-2f3db991d1c7","type":"Feature","properties":{"title":"1837 - A document listing the quantity of coal shipped from English, Scottish and Irish ports in 1836 and 1837. Goole Port appears on the list","url":"https://thecommonroom.org.uk/collection/coal-shipped-from-english-scottish-and-irish-ports-16113/page-499-504-26942/#collection-gallery"},"geometry":{"type":"Point","coordinates":[-0.8709594,53.69931]}},{"@id":"https://w3id.org/Coal%20Maps%2024_08_23/97f1b720-1407-435e-a744-c4b4a9266e6c","type":"Feature","properties":{"title":"1837 - A document listing the quantity of coal shipped from English, Scottish and Irish ports in 1836 and 1837. Ipswich Port appears on the list","url":"https://thecommonroom.org.uk/collection/coal-shipped-from-english-scottish-and-irish-ports-16113/page-499-504-26942/#collection-gallery"},"geometry":{"type":"Point","coordinates":[1.158197,52.04032]}},{"@id":"https://w3id.org/Coal%20Maps%2024_08_23/707cd190-bb9f-41c3-9303-2fc638b6de03","type":"Feature","properties":{"title":"1837 - A document listing the quantity of coal shipped from English, Scottish and Irish ports in 1836 and 1837. Maldon Port appears on the list","url":"https://thecommonroom.org.uk/collection/coal-shipped-from-english-scottish-and-irish-ports-16113/page-499-504-26942/#collection-gallery"},"geometry":{"type":"Point","coordinates":[-0.674858333,51.73183333]}},{"@id":"https://w3id.org/Coal%20Maps%2024_08_23/c0fc80b8-3835-425c-97fb-acd45d143b19","type":"Feature","properties":{"title":"1837 - A document listing the quantity of coal shipped from English, Scottish and Irish ports in 1836 and 1837. Port of Leith appears on the list","url":"https://thecommonroom.org.uk/collection/coal-shipped-from-english-scottish-and-irish-ports-16113/page-499-504-26942/#collection-gallery"},"geometry":{"type":"Point","coordinates":[-3.171328,55.98225]}},{"@id":"https://w3id.org/Coal%20Maps%2024_08_23/cfe521a9-82d8-4a20-87e3-f398ac8d0d78","type":"Feature","properties":{"title":"1837 - A document listing the quantity of coal shipped from English, Scottish and Irish ports in 1836 and 1837. Borrowstounness (Bo'ness) harbour, which is now closed, appears on the list","url":"https://thecommonroom.org.uk/collection/coal-shipped-from-english-scottish-and-irish-ports-16113/page-499-504-26942/#collection-gallery"},"geometry":{"type":"Point","coordinates":[-3.6102,56.0159]}},{"@id":"https://w3id.org/Coal%20Maps%2024_08_23/f16d2b0f-7238-42ee-8278-dfd445d3feae","type":"Feature","properties":{"title":"1837 - A document listing the quantity of coal shipped from English, Scottish and Irish ports in 1836 and 1837. Port of Grangemouth appears on the list","url":"https://thecommonroom.org.uk/collection/coal-shipped-from-english-scottish-and-irish-ports-16113/page-499-504-26942/#collection-gallery"},"geometry":{"type":"Point","coordinates":[-3.705,56.0285]}},{"@id":"https://w3id.org/Coal%20Maps%2024_08_23/f8ee3062-2bd8-4ba4-af21-d7f1d399e18d","type":"Feature","properties":{"title":"1837 - A document listing the quantity of coal shipped from English, Scottish and Irish ports in 1836 and 1837. Harbour of Kirkcaldy,  appears on the list","url":"https://thecommonroom.org.uk/collection/coal-shipped-from-english-scottish-and-irish-ports-16113/page-499-504-26942/#collection-gallery"},"geometry":{"type":"Point","coordinates":[-3.150157,56.11389]}},{"@id":"https://w3id.org/Coal%20Maps%2024_08_23/9d8813ac-9a31-4d66-8e58-28e215f1a494","type":"Feature","properties":{"title":"1837 - A document listing the quantity of coal shipped from English, Scottish and Irish ports in 1836 and 1837. Port of Campbeltown , which is now closed, appears on the list","url":"https://thecommonroom.org.uk/collection/coal-shipped-from-english-scottish-and-irish-ports-16113/page-499-504-26942/#collection-gallery"},"geometry":{"type":"Point","coordinates":[-5.60035,55.4255]}},{"@id":"https://w3id.org/Coal%20Maps%2024_08_23/ff4b8a92-1b14-4326-a8ff-8d8090997957","type":"Feature","properties":{"title":"1837 - A document listing the quantity of coal shipped from English, Scottish and Irish ports in 1836 and 1837. Port of Greenock, appears on the list","url":"https://thecommonroom.org.uk/collection/coal-shipped-from-english-scottish-and-irish-ports-16113/page-499-504-26942/#collection-gallery"},"geometry":{"type":"Point","coordinates":[-4.743073,55.94802]}},{"@id":"https://w3id.org/Coal%20Maps%2024_08_23/057a70c2-94b1-485c-b570-a56c1c13c5a0","type":"Feature","properties":{"title":"1837 - A document listing the quantity of coal shipped from English, Scottish and Irish ports in 1836 and 1837. Port Glasgow appears on the list","url":"https://thecommonroom.org.uk/collection/coal-shipped-from-english-scottish-and-irish-ports-16113/page-499-504-26942/#collection-gallery"},"geometry":{"type":"Point","coordinates":[-4.682665,55.93628]}},{"@id":"https://w3id.org/Coal%20Maps%2024_08_23/f4a439db-f9d2-4a11-9b1c-deb681b607be","type":"Feature","properties":{"title":"1837 - A document listing the quantity of coal shipped from English, Scottish and Irish ports in 1836 and 1837. Irvine Harbour appears on the list","url":"https://thecommonroom.org.uk/collection/coal-shipped-from-english-scottish-and-irish-ports-16113/page-499-504-26942/#collection-gallery"},"geometry":{"type":"Point","coordinates":[-4.68444,55.6078]}},{"@id":"https://w3id.org/Coal%20Maps%2024_08_23/35103df3-bd61-445d-933b-5066242ec477","type":"Feature","properties":{"title":"1837 - A document listing the quantity of coal shipped from English, Scottish and Irish ports in 1836 and 1837. Port of Ayr appears on the list","url":"https://thecommonroom.org.uk/collection/coal-shipped-from-english-scottish-and-irish-ports-16113/page-499-504-26942/#collection-gallery"},"geometry":{"type":"Point","coordinates":[-4.633297,55.46622]}},{"@id":"https://w3id.org/Coal%20Maps%2024_08_23/682dbbb4-f131-41f5-a597-881202e3bdda","type":"Feature","properties":{"title":"1837 - A document listing the quantity of coal shipped from English, Scottish and Irish ports in 1836 and 1837. Port of Dublin appears on the list","url":"https://thecommonroom.org.uk/collection/coal-shipped-from-english-scottish-and-irish-ports-16113/page-499-504-26942/#collection-gallery"},"geometry":{"type":"Point","coordinates":[-6.206939,53.3455]}},{"@id":"https://w3id.org/Coal%20Maps%2024_08_23/9740e7fa-343e-46b4-a77a-7141598788b4","type":"Feature","properties":{"title":"1837 - A document listing the quantity of coal shipped from English, Scottish and Irish ports in 1836 and 1837. Port of Watford appears on the list","url":"https://thecommonroom.org.uk/collection/coal-shipped-from-english-scottish-and-irish-ports-16113/page-499-504-26942/#collection-gallery"},"geometry":{"type":"Point","coordinates":[-7.114593,52.26241]}},{"@id":"https://w3id.org/Coal%20Maps%2024_08_23/379d8b64-5fb4-48c8-80c1-ecb59a5cff19","type":"Feature","properties":{"title":"1838 - A newspaper cuttings regarding measures to regulate the Port of London after complaints of fraud was made","url":"https://thecommonroom.org.uk/collection/to-regulate-the-port-of-london-16115/page-507-26944/#collection-gallery"},"geometry":{"type":"Point","coordinates":[-0.04960075,51.49743]}},{"@id":"https://w3id.org/Coal%20Maps%2024_08_23/54b71e4b-db51-4446-b3dd-ce500e086ca5","type":"Feature","properties":{"title":"1837 - A document listing the quantity of coal shipped from English, Scottish and Irish ports in 1836 and 1837. Port of Limerick appears on the list","url":"https://thecommonroom.org.uk/collection/coal-shipped-from-english-scottish-and-irish-ports-16113/page-499-504-26942/#collection-gallery"},"geometry":{"type":"Point","coordinates":[-8.642039,52.66005]}},{"@id":"https://w3id.org/Coal%20Maps%2024_08_23/e2c04062-e907-4a66-9a87-d5b139fa763f","type":"Feature","properties":{"title":"Moor hall","url":"https://thecommonroom.org.uk/collection/blank-16422/page-289-27252/#collection-gallery"},"geometry":{"type":"Point","coordinates":[-1.609452762,54.96887078]}},{"@id":"https://w3id.org/Coal%20Maps%2024_08_23/5d208dc0-407d-4b0e-9aa6-72df188ca807","type":"Feature","properties":{"title":"Bates COlliery in Blyth","url":"https://thecommonroom.org.uk/collection/reports-of-large-meetings-at-blyth-blackfell-and-jarrow-re-dispute-16454/page-371-372-27284/#collection-gallery"},"geometry":{"type":"Point","coordinates":[-1.5215887,55.134126]}},{"@id":"https://w3id.org/Coal%20Maps%2024_08_23/7ee6cb82-a30a-4c18-a1cd-8e4176db43db","type":"Feature","properties":{"title":"Bedlington Colliery","url":"https://thecommonroom.org.uk/collection/reports-of-large-meetings-at-blyth-blackfell-and-jarrow-re-dispute-16454/page-371-372-27284/#collection-gallery"},"geometry":{"type":"Point","coordinates":[-1.574867,55.138817]}},{"@id":"https://w3id.org/Coal%20Maps%2024_08_23/23346d74-957a-40a3-adb2-77b8c8272d39","type":"Feature","properties":{"title":"Netherton","url":"https://thecommonroom.org.uk/collection/reports-of-large-meetings-at-blyth-blackfell-and-jarrow-re-dispute-16454/page-371-372-27284/#collection-gallery"},"geometry":{"type":"Point","coordinates":[-1.6263354,55.137053]}},{"@id":"https://w3id.org/Coal%20Maps%2024_08_23/fa61ab79-3acb-4b88-b986-4cbd8fc61744","type":"Feature","properties":{"title":"Cowpen","url":"https://thecommonroom.org.uk/collection/reports-of-large-meetings-at-blyth-blackfell-and-jarrow-re-dispute-16454/page-371-372-27284/#collection-gallery"},"geometry":{"type":"Point","coordinates":[-1.514167,55.083889]}},{"@id":"https://w3id.org/Coal%20Maps%2024_08_23/aafec8bb-c2f2-48f3-8118-533ed55ad7e6","type":"Feature","properties":{"title":"Jarrow","url":"https://thecommonroom.org.uk/collection/reports-of-large-meetings-at-blyth-blackfell-and-jarrow-re-dispute-16454/page-371-372-27284/#collection-gallery"},"geometry":{"type":"Point","coordinates":[-1.4909374,54.981309]}},{"@id":"https://w3id.org/Coal%20Maps%2024_08_23/d557e487-28cd-4bcc-83d3-60f49ed2d56c","type":"Feature","properties":{"title":"Walker","url":"https://thecommonroom.org.uk/collection/newspaper-cutting-re-rewards-for-information-on-assaults-by-pitmen-at-walker-and-bigges-main-16448/page-365-27278/"},"geometry":{"type":"Point","coordinates":[-1.5427555,54.96985]}},{"@id":"https://w3id.org/Coal%20Maps%2024_08_23/133c3eef-0d42-4cb8-861b-a4c54b9a6387","type":"Feature","properties":{"title":"Bigge's main","url":"https://thecommonroom.org.uk/collection/newspaper-cutting-re-rewards-for-information-on-assaults-by-pitmen-at-walker-and-bigges-main-16448/page-365-27278/"},"geometry":{"type":"Point","coordinates":[-1.5532479,54.997028]}},{"@id":"https://w3id.org/Coal%20Maps%2024_08_23/5b8a9022-f727-45bf-b002-dfab6bd3d417","type":"Feature","properties":{"title":"1831 - A newspaper report about a meeting miners in Blackell regarding wages","url":"https://thecommonroom.org.uk/collection/newspaper-reports-re-meetings-of-miners-at-blackfell-for-higher-wages-16447/page-364-27277/"},"geometry":{"type":"Point","coordinates":[-1.5663273,54.913233]}},{"@id":"https://w3id.org/Coal%20Maps%2024_08_23/e915e97c-ff2d-4916-b3ba-24ac61681355","type":"Feature","properties":{"title":"1831 - A handbill published by a delagation of Pitmen \"of the Tyne and Wear\" in response to what they felt was a misrepresentation of their caue and meetings by the Tyne Mercury, a Northen Newspaper at the time.  A meeting held at Black Fell Colliery, later known as Mount Moor Colliery, is mentioned within the handbill.","url":"https://thecommonroom.org.uk/collection/handbill-entitled-to-the-public-being-an-answer-to-the-tyne-mercury-from-a-delegate-meeting-of-the-pitmen-16417/page-284-27247/"},"geometry":{"type":"Point","coordinates":[-1.5663273,54.913233]}},{"@id":"https://w3id.org/Coal%20Maps%2024_08_23/b84e8146-b5a4-4719-ab02-3fd3ca180978","type":"Feature","properties":{"title":"1831 - A handbill published by a delagation of Pitmen \"of the Tyne and Wear\" in response to what they felt was a misrepresentation of their caue and meetings by the Tyne Mercury, a Northen Newspaper at the time.  A meeting held at Seghill Colliery, is mentioned within the handbill.","url":"https://thecommonroom.org.uk/collection/handbill-entitled-to-the-public-being-an-answer-to-the-tyne-mercury-from-a-delegate-meeting-of-the-pitmen-16417/page-284-27247/"},"geometry":{"type":"Point","coordinates":[-1.5474347,55.067728]}},{"@id":"https://w3id.org/Coal%20Maps%2024_08_23/909a6abf-1ab0-4ab1-a1ea-97f733a74950","type":"Feature","properties":{"title":"1832 - A hanbill published giving a calender of prisoners in local gaols coming to trial for charges ranging from concealing a pregnany to murder. Durham Gaol is featured, with 24 defendants. ","url":"https://thecommonroom.org.uk/collection/handbill-giving-a-calendar-of-prisoners-in-durham-newcastle-and-morpeth-gaols-coming-to-trial-at-the-assizes-16511/page-469-27341/#collection-gallery"},"geometry":{"type":"Point","coordinates":[-1.568056,54.773333]}},{"@id":"https://w3id.org/Coal%20Maps%2024_08_23/3e2654d8-8212-4cf2-8165-43f8c2a91225","type":"Feature","properties":{"title":"1832 - A hanbill published giving a calender of prisoners in local gaols coming to trial for charges ranging from concealing a pregnany to murder. Newcastle Gaol is featured, with 24 defendants. ","url":"https://thecommonroom.org.uk/collection/handbill-giving-a-calendar-of-prisoners-in-durham-newcastle-and-morpeth-gaols-coming-to-trial-at-the-assizes-16511/page-469-27341/#collection-gallery"},"geometry":null},{"@id":"https://w3id.org/Coal%20Maps%2024_08_23/dad465f1-1358-4e8b-ad83-68699b8efbc5","type":"Feature","properties":{"title":"1832 - A hanbill published giving a calender of prisoners in local gaols coming to trial for charges ranging from concealing a pregnany to murder. Morpeth Gaol is featured, with 13 defendants. ","url":"https://thecommonroom.org.uk/collection/handbill-giving-a-calendar-of-prisoners-in-durham-newcastle-and-morpeth-gaols-coming-to-trial-at-the-assizes-16511/page-469-27341/#collection-gallery"},"geometry":{"type":"Point","coordinates":[-1.687131,55.167057]}},{"@id":"https://w3id.org/Coal%20Maps%2024_08_23/7be593f7-5fa0-480d-9077-23dfbe2cbc79","type":"Feature","properties":{"title":"1832 - Newspaper report from  a local paper regarding the murder of Magistrate Nicholas Fairles. Fairles was murdered at Jarrow Colliery by \"pitmen\"","url":"https://thecommonroom.org.uk/collection/newspaper-report-from-local-papers-of-murder-of-magistrate-nicholas-fairles-at-jarrow-colliery-16509/page-467-27339/#collection-gallery"},"geometry":{"type":"Point","coordinates":[-1.4826042,54.982909]}},{"@id":"https://w3id.org/Coal%20Maps%2024_08_23/63872e77-1af0-4876-acda-7c0364e1525c","type":"Feature","properties":{"title":"1832 - Pamphlet entitled impartial enquiry into the Causes of Dispute between Coal Owners and Pitment. In the pamphlet it mentions rioting at Waldridge fell. ","url":"https://thecommonroom.org.uk/collection/pamphlet-entitled-impartial-enquiry-into-the-causes-of-dispute-between-coal-owners-and-pitmen-by-scrutator-16501/page-437-448-27331/#collection-gallery"},"geometry":{"type":"Point","coordinates":[-1.610556,54.840278]}},{"@id":"https://w3id.org/Coal%20Maps%2024_08_23/7c34e810-82ce-4991-aac2-e3265b81ce23","type":"Feature","properties":{"title":"1832 - Pamphlet entitled impartial enquiry into the Causes of Dispute between Coal Owners and Pitment. In the pamphlet it mentions Hetton where the writer says \"atrocities (where) committed\"","url":"https://thecommonroom.org.uk/collection/pamphlet-entitled-impartial-enquiry-into-the-causes-of-dispute-between-coal-owners-and-pitmen-by-scrutator-16501/page-437-448-27331/#collection-gallery"},"geometry":{"type":"Point","coordinates":[-1.4420939,54.816481]}},{"@id":"https://w3id.org/Coal%20Maps%2024_08_23/8c450fdf-6c9a-492a-9e08-a6f4bf757e2e","type":"Feature","properties":{"title":"1832 - Newspaper cutting regarding the Pitman's dispute. The clipping highlights the dispute at Burdon Main Colliery ","url":"https://thecommonroom.org.uk/collection/newspaper-cuttings-re-the-pitmens-dispute-16496/page-431-432-27326/#collection-gallery"},"geometry":{"type":"Point","coordinates":[-1.4497382,54.998132]}},{"@id":"https://w3id.org/Coal%20Maps%2024_08_23/2e8d2b3e-5b54-4064-b306-e94c4893bb43","type":"Feature","properties":{"title":"1832 - Newspaper cutting regarding the Pitman's dispute. The clipping highlights an assault that took place at Tyne Main colliery","url":"https://thecommonroom.org.uk/collection/newspaper-cuttings-re-the-pitmens-dispute-16496/page-431-432-27326/#collection-gallery"},"geometry":{"type":"Point","coordinates":[-1.5800664,54.951033]}},{"@id":"https://w3id.org/Coal%20Maps%2024_08_23/2b6a8481-28ff-4fae-b337-23f206a57e1a","type":"Feature","properties":{"title":"1832 - Newspaper cutting regarding the Pitman's dispute. The clipping highlights an assault that took place at Friar's Goose colliery","url":"https://thecommonroom.org.uk/collection/newspaper-cuttings-re-the-pitmens-dispute-16496/page-431-432-27326/#collection-gallery"},"geometry":{"type":"Point","coordinates":[-1.5863016,54.952025]}},{"@id":"https://w3id.org/Coal%20Maps%2024_08_23/9276565b-8f87-4e6d-afb6-9239120da233","type":"Feature","properties":{"title":"1832 - Newspaper cutting regarding the pitmen's dispute. The clipping mentions the collieries which have been left \"unworked\" due to the dispute, including St Lawrence Colliery in Byker","url":"https://thecommonroom.org.uk/collection/newspaper-cuttings-re-the-pitmens-dispute-16492/page-425-27322/"},"geometry":{"type":"Point","coordinates":[-1.5818615,54.970638]}},{"@id":"https://w3id.org/Coal%20Maps%2024_08_23/467672ce-c5d4-4e69-b0d6-6c98f8082f8d","type":"Feature","properties":{"title":"1832 - Newspaper cutting regarding the pitmen's dispute. The clipping mentions the collieries which have been left \"unworked\" due to the dispute, including Burdon Main Colliery where police were used to remove miner's from their homes","url":"https://thecommonroom.org.uk/collection/newspaper-cuttings-re-the-pitmens-dispute-16492/page-425-27322/"},"geometry":{"type":"Point","coordinates":[-1.4497382,54.998132]}},{"@id":"https://w3id.org/Coal%20Maps%2024_08_23/2547ea18-6036-442c-b1a0-232b2fe6e1e6","type":"Feature","properties":{"title":"1832 - Newspaper cutting regarding the pitmen's dispute. The clipping mentions the collieries which have been left \"unworked\" due to the dispute, including Cramlington Colliery","url":"https://thecommonroom.org.uk/collection/newspaper-cuttings-re-the-pitmens-dispute-16492/page-425-27322/"},"geometry":{"type":"Point","coordinates":[-1.5660787,55.081275]}},{"@id":"https://w3id.org/Coal%20Maps%2024_08_23/33d91475-2fba-44b3-804f-8090ab285927","type":"Feature","properties":{"title":"1832 - Newspaper cutting regarding the pitmen's dispute. The clipping mentions the collieries which have been left \"unworked\" due to the dispute, including Elswick Colliery where pitmen were due to be removed from their homes due to the dispute","url":"https://thecommonroom.org.uk/collection/newspaper-cuttings-re-the-pitmens-dispute-16492/page-425-27322/"},"geometry":{"type":"Point","coordinates":[-1.6413,54.972302]}},{"@id":"https://w3id.org/Coal%20Maps%2024_08_23/ebccdd70-dc3d-48bc-a658-789de128dcc4","type":"Feature","properties":{"title":"1832 - Newspaper cutting regarding the pitmen's dispute. The clipping mentions the collieries which have been left \"unworked\" due to the dispute, including Fawdon Colliery where pitmen were removed by the millitary and local police from their homes. This was to make room for other work men during the dispute","url":"https://thecommonroom.org.uk/collection/newspaper-cuttings-re-the-pitmens-dispute-16492/page-425-27322/"},"geometry":{"type":"Point","coordinates":[-1.6460854,55.014362]}},