{"@id":"https://w3id.org/Final%20copy%202nd%20%20-%20Sheet1%20(1)","type":"FeatureCollection","@context":"https://w3id.org/locolligo/contexts/linkedplaces.jsonld","features":[{"@id":"Page 4 / Westoe, Colliery, Ranging arm shearer, Underground, machinery, people (thecommonroom.org.uk)","type":"Feature","properties":{"title":"1974 - Westoe Colliery, Ranging arm machinery along with a Miner observing it"},"geometry":{"type":"Point","coordinates":[-1.416958,54.994924]}},{"@id":"Page 161 / Engravings of fossil tree at Cresswell. (thecommonroom.org.uk)","type":"Feature","properties":{"title":"1830 - Engraving of fossil tree at Cresswell"},"geometry":{"type":"Point","coordinates":[-1.54025,55.23567]}},{"@id":"folder / Under the Coaly Tyne (Painting) (thecommonroom.org.uk)","type":"Feature","properties":{"title":"1887 - Under the Coal Tyne by John Hodgson Campbell based on his visits to Redheugh Colliery "},"geometry":{"type":"Point","coordinates":[-1.619513,54.957647]}},{"@id":"Page 9 / 600' Central Mine, Broken Hill H.F. Bulman (thecommonroom.org.uk)","type":"Feature","properties":{"title":"date unkown - 600' Central Mine, Broken Hill, Australia"},"geometry":{"type":"Point","coordinates":[141.45583,-31.97694]}},{"@id":"Page 40 / Library of Parliament, Ottawa, Canada (thecommonroom.org.uk)","type":"Feature","properties":{"title":"Date unkown - Library of Parliament, Ottowa, Canada"},"geometry":{"type":"Point","coordinates":[-75.700233,45.425507]}},{"@id":"Page 1 / Westoe, Crown shaft (thecommonroom.org.uk)","type":"Feature","properties":{"title":"Date unkown -  Westoe Crown Shaft"},"geometry":{"type":"Point","coordinates":[-1.416958,54.994924]}},{"@id":"Page 50 / Opencast, Acklington RAF station (thecommonroom.org.uk)","type":"Feature","properties":{"title":"1974 - Acklington R.A.F Station "},"geometry":{"type":"Point","coordinates":[-1.641666667,55.3]}},{"@id":"Page 48 / Blyth harbour, vertical aerial view (thecommonroom.org.uk)","type":"Feature","properties":{"title":"1980 - Blyth Harbour "},"geometry":{"type":"Point","coordinates":[-1.50273233,55.13069916]}},{"@id":"Page 13 / Quincy No.2 shaft, Rookhouse, Photo by Islar (?) (thecommonroom.org.uk)","type":"Feature","properties":{"title":"Date unkown - Quincy No. 2 Shaft, Rookhouse"},"geometry":{"type":"Point","coordinates":[-88.5731,47.1357]}},{"@id":"Page 38 / Seaham, vertical aerial photo (thecommonroom.org.uk)","type":"Feature","properties":{"title":"1980 - Seaham by air"},"geometry":{"type":"Point","coordinates":[-1.325521,54.83615]}},{"@id":"Page 35 / Ellington colliery, underground (thecommonroom.org.uk)","type":"Feature","properties":{"title":"Date Unkown - Miner standing underground in Ellington Colliery "},"geometry":{"type":"Point","coordinates":[-1.5562069,55.219717]}},{"@id":"Page 32 / Ellington colliery Northumberland (thecommonroom.org.uk)","type":"Feature","properties":{"title":"Date unkown - Miner working with equipment in Ellington Colliery"},"geometry":{"type":"Point","coordinates":[-1.5562069,55.219717]}},{"@id":"Page 27 / Ellington colliery Northumberland aerial view (thecommonroom.org.uk)","type":"Feature","properties":{"title":"Date unkown - Ariel view of Ellington Colliery "},"geometry":{"type":"Point","coordinates":[-1.5562069,55.218272]}},{"@id":"https://thecommonroom.org.uk/collection/jarrow-coal-terminal-aerial-view-19259/page-40-25737/","type":"Feature","properties":{"title":"Date unkown - Jarrow Coal terminal aerial view"},"geometry":{"type":"Point","coordinates":[-1.4826042,54.982909]}},{"@id":"https://thecommonroom.org.uk/collection/dawdon-colliery-underground-conveyor-system-19233/page-14-25711/#collection-gallery","type":"Feature","properties":{"title":"1973 - Man working the underground conveyor system in Dawdon Colliery"},"geometry":{"type":"Point","coordinates":[-1.3229363,54.823154]}},{"@id":"Page 26 / Murton Colliery DOSCO roadheader, (thecommonroom.org.uk)","type":"Feature","properties":{"title":"1973 - a dosco Roadheader in Murton Colliery"},"geometry":null},{"@id":"Page 32 / 1169, Mt. Stephen from Kicking Horse River, Rockies. Back: photo by Boorne and May, Calgary (thecommonroom.org.uk)","type":"Feature","properties":{"title":"Date unkown - Photograph of Mount Stephen in British Columbia from Kicking Horse River"},"geometry":{"type":"Point","coordinates":[-116.436354,51.398938]}},{"@id":"Page 33 / 1271 Mouth of Sundance Canyon, Banff (thecommonroom.org.uk)","type":"Feature","properties":{"title":"Date Unkown - Mouth of Sundance Canyon in Banff"},"geometry":{"type":"Point","coordinates":[-115.615562,51.154094]}},{"@id":"Page 22 / Zoo Adelaide? (thecommonroom.org.uk)","type":"Feature","properties":{"title":"Date Unkown - Enclosure at Adelaide Zoo containing a stork"},"geometry":{"type":"Point","coordinates":[138.6058333,-34.91416667]}},{"@id":"Page 59 / Hawthorn site vertical aerial view (thecommonroom.org.uk)","type":"Feature","properties":{"title":"1979 - Ariel View of Hawthorn Colliery "},"geometry":{"type":"Point","coordinates":[-1.32309,54.81048]}},{"@id":"Page 52 / Opencast, Nackshivan, Co. Durham, Aerial view (thecommonroom.org.uk)","type":"Feature","properties":{"title":"1974 - Opencast mine in Nackshivan "},"geometry":{"type":"Point","coordinates":[-1.7110282,54.725799]}},{"@id":"Page 51 / Opencast, Ragpath site Co. Durham, Aerial view (thecommonroom.org.uk)","type":"Feature","properties":{"title":"1974 - Ariel View of an opencast mine on the Ragpath Site"},"geometry":{"type":"Point","coordinates":[-1.763611111,54.79861111]}},{"@id":"Page 66 / Dawdon Rack a Track (thecommonroom.org.uk)","type":"Feature","properties":{"title":"1974 - Dawdon Colliery, rack a track"},"geometry":{"type":"Point","coordinates":[-1.3229363,54.823154]}},{"@id":"https://thecommonroom.org.uk/collection/dawdon-tunnelling-machine-19244/page-25-25722/#collection-gallery","type":"Feature","properties":{"title":"Date unkown - Dawdon tunelling Machine"},"geometry":{"type":"Point","coordinates":[-1.3229363,54.823154]}},{"@id":"Page 49 / River Wear, Sunderland, aerial view (thecommonroom.org.uk)","type":"Feature","properties":{"title":"Date unkown - Arieal view of the River Wear as it goes through Sunderland "},"geometry":{"type":"Point","coordinates":[-1.373123,54.910481]}},{"@id":"Page 8 / Conveyer delivering spoil to beach, bulldozers (thecommonroom.org.uk)","type":"Feature","properties":{"title":"Date unkown - Conveyer delivering spoil to beaches in Dawdon Beach"},"geometry":{"type":"Point","coordinates":[-1.3214295,54.824093]}},{"@id":"Page 407 / Plan and section of the Gilmerton Coalfield (thecommonroom.org.uk)","type":"Feature","properties":{"title":"1830 - Plan and Section of the Gilmerton Coalfield showing coal seams "},"geometry":{"type":"Point","coordinates":[-3.1274482,55.899949]}},{"@id":"folder / George Baker Forster (painting) (thecommonroom.org.uk)","type":"Feature","properties":{"title":"1901 - Painting of George Baker Foster by H. Von Herkomer. Foster lived in Farnley Hill Corbridge during his life and was President of the North of England Mining Institute and Mechanical Engineers"},"geometry":{"type":"Point","coordinates":[-2.005788,54.961262]}},{"@id":"folder / William C. Blackett (Painting) (thecommonroom.org.uk)","type":"Feature","properties":{"title":"Date unkown - Painting of William Cuthbert Blacket by unkown artists. Blackett, who attended Durham University lived in South Bailey and was President of the North of England Mining Institute and Mechanical Engineers"},"geometry":{"type":"Point","coordinates":[-1.575314,54.772087]}},{"@id":"https://thecommonroom.org.uk/collection/george-stephenson-painting-15565/folder-22036/","type":"Feature","properties":{"title":"Date Unkown - Painting of George Stephenson by unkown artist. Stephenson is considered the \"Father of Railways\" with the \"Stephenson gauge\" still used as the standard for most of the world's railways"},"geometry":{"type":"Point","coordinates":[-1.5718211,55.027558]}},{"@id":"folder / John Buddle (Painting) (thecommonroom.org.uk)","type":"Feature","properties":{"title":"Date Unkown - Painting of John Bubble by an unkown artist. Bubble had a major influence on the development of Northen Coalfield and their saftey. Though working in many coalmines he started off his career working in Walllsend Colliery and died in Wallsend in 1843"},"geometry":{"type":"Point","coordinates":[-1.5170374,54.991228]}},{"@id":"Page 2 / Lake Huron, Whalebacks [Ore ships] (thecommonroom.org.uk)","type":"Feature","properties":{"title":"Date unkown - Whaleback Ore Ships on Lake Huron"},"geometry":{"type":"Point","coordinates":[-82.4,44.79999983]}},{"@id":"Page 4 / Slocan City (thecommonroom.org.uk)","type":"Feature","properties":{"title":"Date unkown - Slocan City in Canada "},"geometry":{"type":"Point","coordinates":[-117.470909,49.766079]}},{"@id":"Page 44 / Niagara Falls, USA (thecommonroom.org.uk)","type":"Feature","properties":{"title":"Date Unkown - A picture of the Niagra Falls in the USA"},"geometry":{"type":"Point","coordinates":[-79.07411377,43.08262805]}},{"@id":"Page 3 / Vignette for head pieces, 3325, H. F. Bulman (thecommonroom.org.uk)","type":"Feature","properties":{"title":"Date unkown - A picture of Broken Hills Australia where mining took place"},"geometry":{"type":"Point","coordinates":[141.45583,-31.97694]}},{"@id":"Page 18 / Front: Underground, Calumet and Hecla Drift 604. Back: view of face of drift in the copper bearing bed at Calumet and Hecla H. F.Bulman (thecommonroom.org.uk)","type":"Feature","properties":{"title":"Date Unkown - Calumet Michigan, two men standing in front of a Calumet and Helcla Drift"},"geometry":{"type":"Point","coordinates":[-105.94785,38.63737]}},{"@id":"Page 17 / Quincy Stamp Mill, photo by ??? (thecommonroom.org.uk)","type":"Feature","properties":{"title":"Date unkown - Quincy Stamp Mill"},"geometry":{"type":"Point","coordinates":[-8.460216,47.146736]}},{"@id":"Page 27 / Bow Rapids and C.P.R Hotel, Banff (thecommonroom.org.uk)","type":"Feature","properties":{"title":"Date unkown - Bow River Rapids in Canada. In the background a Canadian Pacific Railway (CPR) hotel can be seen. The hotel opened in 1888"},"geometry":{"type":"Point","coordinates":[-115.561944,51.164444]}},{"@id":"Page 43 / University of Toronto, Canada (thecommonroom.org.uk)","type":"Feature","properties":{"title":"Date Unkown - University of Toronto Canada"},"geometry":{"type":"Point","coordinates":[-79.396446,43.663497]}},{"@id":"Page 42 / Parliament buildings, Toronto, Canada (thecommonroom.org.uk)","type":"Feature","properties":{"title":"Date unkown - Parliament buildings in Toronto Canada"},"geometry":{"type":"Point","coordinates":[-79.39117826,43.66236228]}},{"@id":"Page 5 / Regina capital of NW Territories (thecommonroom.org.uk)","type":"Feature","properties":{"title":"Date unkown - Regina"},"geometry":{"type":"Point","coordinates":[-104.6181946,50.44549292]}},{"@id":"Page 30 / Kalgwili hospital (thecommonroom.org.uk)","type":"Feature","properties":{"title":"Date unkown - Kalguri Australia"},"geometry":{"type":"Point","coordinates":[121.470045,-30.740452]}},{"@id":"Page 64 / Dry blower, Kalgurli, H F Bulman (thecommonroom.org.uk)","type":"Feature","properties":{"title":"Date unkown - Kalguri in Australia, a miner is seen standing with a mahine with buildings behind him"},"geometry":null},{"@id":"Page 66 / Mr. Robertson, manager Smelting Works, Port Pirie (thecommonroom.org.uk)","type":"Feature","properties":{"title":"Date unkown - Port Pirie smelting works with manager of the plant, Mr Robertson, standing outside"},"geometry":{"type":"Point","coordinates":[138.0092747,-33.16944318]}},{"@id":"Page 6 / ? Slocan Lake BC (thecommonroom.org.uk)","type":"Feature","properties":{"title":"Date Unkown - Map to accompany the survey of Agriculture in Northumberland by Bailey and Culley"},"geometry":{"type":"Point","coordinates":[-117.390352,49.938917]}},{"@id":"Page 203 / Map to accompany the survey of agriculture in Northumberland by Bailey and Culley. (thecommonroom.org.uk)","type":"Feature","properties":{"title":"Date Unkown - Map to accompany the survey of Agriculture in Northumberland by Bailey and Culley"},"geometry":{"type":"Point","coordinates":[-1.687491667,55.16875]}},{"@id":"Page 111 / Article about colliery explosions from 1805 to 1828 (thecommonroom.org.uk)","type":"Feature","properties":{"title":"1829 - Article about Colliery explosions from 1805 to 1828 which notes the 1817 explosion at Row Pit at Harraton which killed 38 men. The list comes from an adress given to the Coal Trade Investigation in a Committee of the House of Lords"},"geometry":{"type":"Point","coordinates":[-1.5433469,54.876305]}},{"@id":"Page 111 / Article about colliery explosions from 1805 to 1828 (thecommonroom.org.uk)","type":"Feature","properties":{"title":"1829 - Article about Colliery explosions from 1805 to 1828 which notes the 1805, 1814 and 1825 explosion at Hebburn Colliery which killed 35,11 and 4 men respectively. The list comes from an adress given to the Coal Trade Investigation in a Committee of the House of Lords"},"geometry":{"type":"Point","coordinates":[-1.5102967,54.98262]}},{"@id":"Page 111 / Article about colliery explosions from 1805 to 1828 (thecommonroom.org.uk)","type":"Feature","properties":{"title":"1829 - Article about Colliery explosions from 1805 to 1828 which notes the 1812, 1813 and 1821 explosion at Felling Colliery which killed 92,22 and 52 men respectively. The list comes from an adress given to the Coal Trade Investigation in a Committee of the House of Lords"},"geometry":{"type":"Point","coordinates":[-1.5721357,54.955364]}},{"@id":"Page 111 / Article about colliery explosions from 1805 to 1828 (thecommonroom.org.uk)","type":"Feature","properties":{"title":"1829 - Article about Colliery explosions from 1805 to 1828 which notes the 1812 explosion at Row Pit at Herrington Mill Pit which killed 23 men. The list comes from an adress given to the Coal Trade Investigation in a Committee of the House of Lords"},"geometry":{"type":"Point","coordinates":[-1.4902454,54.86806]}},{"@id":"Page 111 / Article about colliery explosions from 1805 to 1828 (thecommonroom.org.uk)","type":"Feature","properties":{"title":"1829 - Article about Colliery explosions from 1805 to 1828 which notes the 1813 explosion at Hall Pit in Fatfield which killed 30 men. The list comes from an adress given to the Coal Trade Investigation in a Committee of the House of Lords"},"geometry":{"type":"Point","coordinates":[-1.5504804,54.885093]}},{"@id":"Page 111 / Article about colliery explosions from 1805 to 1828 (thecommonroom.org.uk)","type":"Feature","properties":{"title":"1829 - Article about Colliery explosions from 1805 to 1828 which notes the 1815 explosion at Sucess Pit in Newbottle which killed 57 men. The list comes from an adress given to the Coal Trade Investigation in a Committee of the House of Lords"},"geometry":{"type":"Point","coordinates":[-1.491669,54.860175]}},{"@id":"Page 111 / Article about colliery explosions from 1805 to 1828 (thecommonroom.org.uk)","type":"Feature","properties":{"title":"1829 - Article about Colliery explosions from 1805 to 1828 which notes the 1815 and 1819 explosion at Sheriff Hill which killed 11and 35 men respectively. The list comes from an adress given to the Coal Trade Investigation in a Committee of the House of Lords"},"geometry":{"type":"Point","coordinates":[-1.6006493,54.933246]}},{"@id":"Page 111 / Article about colliery explosions from 1805 to 1828 (thecommonroom.org.uk)","type":"Feature","properties":{"title":"1829 - Article about Colliery explosions from 1805 to 1828 which notes the 1817, 1826 and 1828 explosion at the Jarrow Colliery which killed 6, 34 and 8 men respectively. The list comes from an adress given to the Coal Trade Investigation in a Committee of the House of Lords"},"geometry":{"type":"Point","coordinates":[-1.4826042,54.982909]}},{"@id":"Page 111 / Article about colliery explosions from 1805 to 1828 (thecommonroom.org.uk)","type":"Feature","properties":{"title":"1829 - Article about Colliery explosions from 1805 to 1828 which notes the 1817 and 1823 explosion at Plain Pit in Rainton which killed 26 and 57 men respectively. The list comes from an adress given to the Coal Trade Investigation in a Committee of the House of Lords"},"geometry":null},{"@id":"Page 111 / Article about colliery explosions from 1805 to 1828 (thecommonroom.org.uk)","type":"Feature","properties":{"title":"1829 - Article about Colliery explosions from 1805 to 1828 which notes the 1818 and 1821 explosion at Wallsend Colliery which killed 4 and 52 men respectively. The list comes from an adress given to the Coal Trade Investigation in a Committee of the House of Lords"},"geometry":{"type":"Point","coordinates":[-1.5337258,54.987474]}},{"@id":"Page 113 / Handbill entitled Great News for Pitmen including a New Song (thecommonroom.org.uk)","type":"Feature","properties":{"title":"1829 - Handbill summarising evidence given to the House of Lords regarding the Coal trade, including questions about Wallsend Colliery"},"geometry":{"type":"Point","coordinates":[-1.5337258,54.987474]}},{"@id":"Page 215-222 / Proceedings re Coal Staithes at Wallsend (thecommonroom.org.uk)","type":"Feature","properties":{"title":"1830 - A pamphlet entitled Proceedings at Law in the Case of King V Rusell and others relative to Coal Staithes erected at Wallsend on the River Tyne"},"geometry":{"type":"Point","coordinates":[-1.5337258,54.987474]}},{"@id":"Page 235-238 / Coal duties (thecommonroom.org.uk)","type":"Feature","properties":{"title":"1831 - Newspaper cutting relating to a general meeting of coal owners, ship owners, merchants and others which resolved to petition both houses of Parliament for the abolition of the duty on coals exported"},"geometry":{"type":"Point","coordinates":[-1.60767,54.96842]}},{"@id":"Page 111 / Article about colliery explosions from 1805 to 1828 (thecommonroom.org.uk)","type":"Feature","properties":{"title":"1829 - Article about Colliery explosions from 1805 to 1828 which notes the 1819 and 1823 explosion at George Pit in the Lumley Colliery which killed 13 and 14 men respectively. The list comes from an adress given to the Coal Trade Investigation in a Committee of the House of Lords"},"geometry":{"type":"Point","coordinates":[-1.5322246,54.921644]}},{"@id":"Page 111 / Article about colliery explosions from 1805 to 1828 (thecommonroom.org.uk)","type":"Feature","properties":{"title":"1829 - Article about Colliery explosions from 1805 to 1828 which notes the 1821 explosion at Coxlodge Pit which killed one man. The list comes from an adress given to the Coal Trade Investigation in a Committee of the House of Lord"},"geometry":{"type":"Point","coordinates":[-1.6251889,55.011469]}},{"@id":"Page 111 / Article about colliery explosions from 1805 to 1828 (thecommonroom.org.uk)","type":"Feature","properties":{"title":"1829 - Article about Colliery explosions from 1805 to 1828 which notes the 1823 explosion at Ouston Colliery in Chester-lee-street which killed 4 men. The list comes from an adress given to the Coal Trade Investigation in a Committee of the House of Lord"},"geometry":{"type":"Point","coordinates":[-1.5898523,54.877711]}},{"@id":"Page 111 / Article about colliery explosions from 1805 to 1828 (thecommonroom.org.uk)","type":"Feature","properties":{"title":"1829 - Article about Colliery explosions from 1805 to 1828 which notes the 1823 explosion at Neasham's Dolly Pit in Shiftree which killed 11 men. The list comes from an adress given to the Coal Trade Investigation in a Committee of the House of Lord"},"geometry":{"type":"Point","coordinates":[-1.8033666,54.540275]}},{"@id":"Page 111 / Article about colliery explosions from 1805 to 1828 (thecommonroom.org.uk)","type":"Feature","properties":{"title":"1829 - Article about Colliery explosions from 1805 to 1828 which notes the 1825 explosion at Juliet Pit in Fatfield which killed 11 men. The list comes from an adress given to the Coal Trade Investigation in a Committee of the House of Lord"},"geometry":{"type":"Point","coordinates":[-1.5230227,54.881762]}},{"@id":"Page 111 / Article about colliery explosions from 1805 to 1828 (thecommonroom.org.uk)","type":"Feature","properties":{"title":"1829 - Article about Colliery explosions from 1805 to 1828 which notes the 1826 explosion at Townly Pit which killed 38 men. The list comes from an adress given to the Coal Trade Investigation in a Committee of the House of Lord"},"geometry":{"type":"Point","coordinates":[-1.7765979,54.969516]}},{"@id":"Page 111 / Article about colliery explosions from 1805 to 1828 (thecommonroom.org.uk)","type":"Feature","properties":{"title":"1829 - Article about Colliery explosions from 1805 to 1828 which notes the 1826 explosion at Heworth Colliery which killed 4 men. The list comes from an adress given to the Coal Trade Investigation in a Committee of the House of Lord"},"geometry":{"type":"Point","coordinates":[-1.5598136,54.938371]}},{"@id":"Page 111 / Article about colliery explosions from 1805 to 1828 (thecommonroom.org.uk)","type":"Feature","properties":{"title":"1829 - Article about Colliery explosions from 1805 to 1828 which notes the 1826 explosion at Benwell Colliery which killed 2 men. The list comes from an adress given to the Coal Trade Investigation in a Committee of the House of Lord"},"geometry":{"type":"Point","coordinates":[-1.6656692,54.966701]}},{"@id":"Page 111 / Article about colliery explosions from 1805 to 1828 (thecommonroom.org.uk)","type":"Feature","properties":{"title":"1829 - Article about Colliery explosions from 1805 to 1828 which notes the 1828 explosion at New Pit at Houghton-le-Spring which killed 7 men. The list comes from an adress given to the Coal Trade Investigation in a Committee of the House of Lord"},"geometry":{"type":"Point","coordinates":[-1.4741457,54.846819]}},{"@id":"Page 111 / Article about colliery explosions from 1805 to 1828 (thecommonroom.org.uk)","type":"Feature","properties":{"title":"1829 - Article about Colliery explosions from 1805 to 1828 which notes the 1828 explosion at Washington Colliery which killed 11 men. The list comes from an adress given to the Coal Trade Investigation in a Committee of the House of Lord"},"geometry":{"type":"Point","coordinates":[-1.5298566,54.910626]}},{"@id":"Page 369 / Coal duties (thecommonroom.org.uk)","type":"Feature","properties":{"title":"1831 - Newspaper cutting regarding the call for the abolition of the duty of coals, nicknamed the Richmond Shilling and the petition that was signed"},"geometry":{"type":"Point","coordinates":[-1.60767,54.96842]}},{"@id":"Page 457 / Collieries on the Tyne and coal prices. (thecommonroom.org.uk)","type":"Feature","properties":{"title":"1834 - List of Collieries on the Tyne and their prices in September 1834, including the prices of Benwell Colliery "},"geometry":{"type":"Point","coordinates":[-1.6656692,54.966701]}},{"@id":"Page 457 / Collieries on the Tyne and coal prices. (thecommonroom.org.uk)","type":"Feature","properties":{"title":"1834 - List of Collieries on the Tyne and their prices in September 1834, including the prices of Hebburn Colliery "},"geometry":{"type":"Point","coordinates":[-1.5102967,54.98262]}},{"@id":"Page 457 / Collieries on the Tyne and coal prices. (thecommonroom.org.uk)","type":"Feature","properties":{"title":"1834 - List of Collieries on the Tyne and their prices in September 1834, including the prices of Heworth Colliery "},"geometry":{"type":"Point","coordinates":[-1.5598136,54.938371]}},{"@id":"Page 457 / Collieries on the Tyne and coal prices. (thecommonroom.org.uk)","type":"Feature","properties":{"title":"1834 - List of Collieries on the Tyne and their prices in September 1834, including the prices of Jarrow Colliery "},"geometry":{"type":"Point","coordinates":[-1.4826042,54.982909]}},{"@id":"Page 457 / Collieries on the Tyne and coal prices. (thecommonroom.org.uk)","type":"Feature","properties":{"title":"1834 - List of Collieries on the Tyne and their prices in September 1834, including the prices of Ouston Colliery "},"geometry":{"type":"Point","coordinates":[-1.5898523,54.877711]}},{"@id":"Page 457 / Collieries on the Tyne and coal prices. (thecommonroom.org.uk)","type":"Feature","properties":{"title":"1834 - List of Collieries on the Tyne and their prices in September 1834, including the prices of Sheriff Hill Colliery"},"geometry":{"type":"Point","coordinates":[-1.6006493,54.933246]}},{"@id":"Page 457 / Collieries on the Tyne and coal prices. (thecommonroom.org.uk)","type":"Feature","properties":{"title":"1834 - List of Collieries on the Tyne and their prices in September 1834, including the prices of Townley Colliery "},"geometry":{"type":"Point","coordinates":[-1.7765979,54.969516]}},{"@id":"Page 457 / Collieries on the Tyne and coal prices. (thecommonroom.org.uk)","type":"Feature","properties":{"title":"1834 - List of Collieries on the Tyne and their prices in September 1834, including the prices of Wallsend Colliery "},"geometry":{"type":"Point","coordinates":[-1.5337258,54.987474]}},{"@id":"Page 457 / Collieries on the Tyne and coal prices. (thecommonroom.org.uk)","type":"Feature","properties":{"title":"1834 - List of Collieries on the Tyne and their prices in September 1834, including the prices of Callerton Colliery"},"geometry":{"type":"Point","coordinates":[-1.746561,55.02146]}},{"@id":"Page 457 / Collieries on the Tyne and coal prices. (thecommonroom.org.uk)","type":"Feature","properties":{"title":"1834 - List of Collieries on the Tyne and their prices in September 1834, including the prices of Killingworth Colliery"},"geometry":{"type":"Point","coordinates":[-1.5540852,55.030073]}},{"@id":"Page 457 / Collieries on the Tyne and coal prices. (thecommonroom.org.uk)","type":"Feature","properties":{"title":"1834 - List of Collieries on the Tyne and their prices in September 1834, including the prices of Burradon  Colliery"},"geometry":{"type":"Point","coordinates":[-1.5737332,55.046391]}},{"@id":"Page 457 / Collieries on the Tyne and coal prices. (thecommonroom.org.uk)","type":"Feature","properties":{"title":"1834 - List of Collieries on the Tyne and their prices in September 1834, including the prices of Backworth  Colliery"},"geometry":{"type":"Point","coordinates":[-1.5260359,55.040634]}},{"@id":"Page 457 / Collieries on the Tyne and coal prices. (thecommonroom.org.uk)","type":"Feature","properties":{"title":"1834 - List of Collieries on the Tyne and their prices in September 1834, including the prices of Collingwood  Colliery"},"geometry":{"type":"Point","coordinates":[-1.4583983,55.00509]}},{"@id":"Page 457 / Collieries on the Tyne and coal prices. (thecommonroom.org.uk)","type":"Feature","properties":{"title":"1834 - List of Collieries on the Tyne and their prices in September 1834, including the prices of Cramlington  Colliery"},"geometry":{"type":"Point","coordinates":[-1.5660787,55.081275]}},{"@id":"Page 457 / Collieries on the Tyne and coal prices. (thecommonroom.org.uk)","type":"Feature","properties":{"title":"1834 - List of Collieries on the Tyne and their prices in September 1834, including the prices of Elswick  Colliery"},"geometry":{"type":"Point","coordinates":[-1.6413,54.972302]}},{"@id":"Page 457 / Collieries on the Tyne and coal prices. (thecommonroom.org.uk)","type":"Feature","properties":{"title":"1834 - List of Collieries on the Tyne and their prices in September 1834, including the prices of Fawdon  Colliery"},"geometry":{"type":"Point","coordinates":[-1.6460854,55.014362]}},{"@id":"Page 457 / Collieries on the Tyne and coal prices. (thecommonroom.org.uk)","type":"Feature","properties":{"title":"1834 - List of Collieries on the Tyne and their prices in September 1834, including the prices of Gosforth  Colliery"},"geometry":{"type":"Point","coordinates":[-1.6043975,55.007719]}},{"@id":"Page 457 / Collieries on the Tyne and coal prices. (thecommonroom.org.uk)","type":"Feature","properties":{"title":"1834 - List of Collieries on the Tyne and their prices in September 1834, including the prices of Heaton  Colliery"},"geometry":{"type":"Point","coordinates":[-1.5883318,54.98866]}},{"@id":"Page 457 / Collieries on the Tyne and coal prices. (thecommonroom.org.uk)","type":"Feature","properties":{"title":"1834 - List of Collieries on the Tyne and their prices in September 1834, including the prices of Holywell  Colliery"},"geometry":{"type":"Point","coordinates":[-1.5145528,55.067601]}},{"@id":"Page 457 / Collieries on the Tyne and coal prices. (thecommonroom.org.uk)","type":"Feature","properties":{"title":"1834 - List of Collieries on the Tyne and their prices in September 1834, including the prices of Monkseaton  Colliery"},"geometry":{"type":"Point","coordinates":[-1.4439813,55.040287]}},{"@id":"Page 457 / Collieries on the Tyne and coal prices. (thecommonroom.org.uk)","type":"Feature","properties":{"title":"1834 - List of Collieries on the Tyne and their prices in September 1834, including the prices of Mount Moor Colliery in Springwell"},"geometry":{"type":"Point","coordinates":[-1.5563055,54.923846]}},{"@id":"Page 457 / Collieries on the Tyne and coal prices. (thecommonroom.org.uk)","type":"Feature","properties":{"title":"1834 - List of Collieries on the Tyne and their prices in September 1834, including the prices of Percy Main Colliery "},"geometry":{"type":"Point","coordinates":[-1.4741032,54.997305]}},{"@id":"Page 457 / Collieries on the Tyne and coal prices. (thecommonroom.org.uk)","type":"Feature","properties":{"title":"1834 - List of Collieries on the Tyne and their prices in September 1834, including the prices of Seghill Colliery "},"geometry":{"type":"Point","coordinates":[-1.5474334,55.067845]}},{"@id":"Page 457 / Collieries on the Tyne and coal prices. (thecommonroom.org.uk)","type":"Feature","properties":{"title":"1834 - List of Collieries on the Tyne and their prices in September 1834, including the prices of Springwelll Colliery "},"geometry":{"type":"Point","coordinates":[-1.5611038,54.910177]}},{"@id":"Page 457 / Collieries on the Tyne and coal prices. (thecommonroom.org.uk)","type":"Feature","properties":{"title":"1834 - List of Collieries on the Tyne and their prices in September 1834, including the prices of St Lawrence Colliery in Byker"},"geometry":{"type":"Point","coordinates":[-1.5818615,54.970638]}},{"@id":"Page 457 / Collieries on the Tyne and coal prices. (thecommonroom.org.uk)","type":"Feature","properties":{"title":"1834 - List of Collieries on the Tyne and their prices in September 1834, including the prices of Team Colliery"},"geometry":{"type":"Point","coordinates":[1.591741,54.917527]}},{"@id":"Page 457 / Collieries on the Tyne and coal prices. (thecommonroom.org.uk)","type":"Feature","properties":{"title":"1834 - List of Collieries on the Tyne and their prices in September 1834, including the prices of Tanfield Lea & Garsfield Colliery"},"geometry":{"type":"Point","coordinates":[-1.7131944,54.87952]}},{"@id":"Page 457 / Collieries on the Tyne and coal prices. (thecommonroom.org.uk)","type":"Feature","properties":{"title":"1834 - List of Collieries on the Tyne and their prices in September 1834, including the prices of Tanfield Moor Colliery"},"geometry":{"type":"Point","coordinates":[-1.6990648,54.891204]}},{"@id":"Page 457 / Collieries on the Tyne and coal prices. (thecommonroom.org.uk)","type":"Feature","properties":{"title":"1834 - List of Collieries on the Tyne and their prices in September 1834, including the prices of Usworth Colliery"},"geometry":{"type":"Point","coordinates":[-1.5099497,54.91868]}},{"@id":"Page 457 / Collieries on the Tyne and coal prices. (thecommonroom.org.uk)","type":"Feature","properties":{"title":"1834 - List of Collieries on the Tyne and their prices in September 1834, including the prices of Tyne Main Colliery"},"geometry":{"type":"Point","coordinates":[-1.572941,54.962356]}},{"@id":"Page 457 / Collieries on the Tyne and coal prices. (thecommonroom.org.uk)","type":"Feature","properties":{"title":"1834 - List of Collieries on the Tyne and their prices in September 1834, including the prices of Waldridge Colliery"},"geometry":{"type":"Point","coordinates":[-1.610895,54.845015]}},{"@id":"Page 457 / Collieries on the Tyne and coal prices. (thecommonroom.org.uk)","type":"Feature","properties":{"title":"1834 - List of Collieries on the Tyne and their prices in September 1834, including the prices of Walker Colliery"},"geometry":{"type":"Point","coordinates":[-1.5427555,54.96985]}},{"@id":"Page 457 / Collieries on the Tyne and coal prices. (thecommonroom.org.uk)","type":"Feature","properties":{"title":"1834 - List of Collieries on the Tyne and their prices in September 1834, including the prices of Walbottle Colliery"},"geometry":{"type":"Point","coordinates":[-1.7383515,54.989928]}},{"@id":"Page 457 / Collieries on the Tyne and coal prices. (thecommonroom.org.uk)","type":"Feature","properties":{"title":"1834 - List of Collieries on the Tyne and their prices in September 1834, including the prices of Willington Colliery"},"geometry":{"type":"Point","coordinates":[-1.6919675,54.701292]}},{"@id":"Page 457 / Collieries on the Tyne and coal prices. (thecommonroom.org.uk)","type":"Feature","properties":{"title":"1834 - List of Collieries on the Tyne and their prices in September 1834, including the prices of Wideopen Colliery"},"geometry":{"type":"Point","coordinates":[-1.6180129,55.0459]}},{"@id":"Page 457 / Collieries on the Tyne and coal prices. (thecommonroom.org.uk)","type":"Feature","properties":{"title":"1834 - List of Collieries on the Tyne and their prices in September 1834, including the prices of Wylam Colliery"},"geometry":{"type":"Point","coordinates":[-1.8265635,54.9740905]}},{"@id":"Page 461 / Coals at London Market (thecommonroom.org.uk)","type":"Feature","properties":{"title":"1835 - Account of Coals at London Market including their prices. Medomsley Colliery is featured on the list. "},"geometry":{"type":"Point","coordinates":[-1.8223824,54.877032]}},{"@id":"Page 461 / Coals at London Market (thecommonroom.org.uk)","type":"Feature","properties":{"title":"1835 - Account of Coals at London Market including their prices. Stormont Main Colliery is featured on the list. "},"geometry":{"type":"Point","coordinates":[-1.5711668,54.926083]}},{"@id":"Page 463-464 / Morpeth Railroad and the Coal Trade (thecommonroom.org.uk)","type":"Feature","properties":{"title":"1835 - A letter from the Editor of the Newcastle Journal regarding the Morpeth Railroad and the Coal Trade"},"geometry":{"type":"Point","coordinates":[-1.683159,55.16226]}},{"@id":"Page 461 / Coals at London Market (thecommonroom.org.uk)","type":"Feature","properties":{"title":"1835 - Account of Coals at London Market including their prices. Bradley Colliery is featured on the list. "},"geometry":{"type":"Point","coordinates":[-1.8085001,54.859811]}},{"@id":"Page 461 / Coals at London Market (thecommonroom.org.uk)","type":"Feature","properties":{"title":"1835 - Account of Coals at London Market including their prices. Ellison Low Main (sometimes reffered to as Sheriff's Hill)is featured on the list. "},"geometry":{"type":"Point","coordinates":[-1.6006493,54.933246]}},{"@id":"Page 461 / Coals at London Market (thecommonroom.org.uk)","type":"Feature","properties":{"title":"1835 - Account of Coals at London Market including their prices. East Percy Colliery is featured on the list. "},"geometry":{"type":"Point","coordinates":[-1.49026,55.004646]}},{"@id":"Page 461 / Coals at London Market (thecommonroom.org.uk)","type":"Feature","properties":{"title":"1835 - Account of Coals at London Market including their prices. Felling Colliery is featured on the list. "},"geometry":{"type":"Point","coordinates":[-1.5721357,54.955364]}},{"@id":"Page 461 / Coals at London Market (thecommonroom.org.uk)","type":"Feature","properties":{"title":"1835 - Account of Coals at London Market including their prices. Garesfield Colliery is featured on the list. "},"geometry":{"type":"Point","coordinates":[-1.7839821,54.932416]}},{"@id":"Page 461 / Coals at London Market (thecommonroom.org.uk)","type":"Feature","properties":{"title":"1835 - Account of Coals at London Market including their prices. Hebburn Colliery is featured on the list. "},"geometry":{"type":"Point","coordinates":[-1.5102967,54.98262]}},{"@id":"Page 461 / Coals at London Market (thecommonroom.org.uk)","type":"Feature","properties":{"title":"1835 - Account of Coals at London Market including their prices. Hollywell Colliery is featured on the list. "},"geometry":{"type":"Point","coordinates":[-1.5145528,55.067601]}},{"@id":"Page 461 / Coals at London Market (thecommonroom.org.uk)","type":"Feature","properties":{"title":"1835 - Account of Coals at London Market including their prices. Redheugh Colliery is featured on the list. "},"geometry":{"type":"Point","coordinates":[-1.6190847,54.957586]}},{"@id":"Page 461 / Coals at London Market (thecommonroom.org.uk)","type":"Feature","properties":{"title":"1835 - Account of Coals at London Market including their prices. Pelaw Colliery is featured on the list. "},"geometry":{"type":"Point","coordinates":[-1.5891288,54.864561]}},{"@id":"Page 461 / Coals at London Market (thecommonroom.org.uk)","type":"Feature","properties":{"title":"1835 - Account of Coals at London Market including their prices. Pontop Colliery is featured on the list. "},"geometry":{"type":"Point","coordinates":[-1.747836,54.860366]}},{"@id":"Page 461 / Coals at London Market (thecommonroom.org.uk)","type":"Feature","properties":{"title":"1835 - Account of Coals at London Market including their prices. Shipcote Colliery is featured on the list. "},"geometry":{"type":"Point","coordinates":[-1.5961291,54.959166]}},{"@id":"Page 461 / Coals at London Market (thecommonroom.org.uk)","type":"Feature","properties":{"title":"1835 - Account of Coals at London Market including their prices. Hartley Colliery is featured on the list. "},"geometry":{"type":"Point","coordinates":[-1.514167,55.083889]}},{"@id":"Page 461 / Coals at London Market (thecommonroom.org.uk)","type":"Feature","properties":{"title":"1835 - Account of Coals at London Market including their prices. Willington Colliery is featured on the list. "},"geometry":{"type":"Point","coordinates":[-1.6919675,54.701292]}},{"@id":"Page 461 / Coals at London Market (thecommonroom.org.uk)","type":"Feature","properties":{"title":"1835 - Account of Coals at London Market including their prices. Wylam Colliery is featured on the list. "},"geometry":{"type":"Point","coordinates":[-1.8265635,54.9740905]}},{"@id":"Page 461 / Coals at London Market (thecommonroom.org.uk)","type":"Feature","properties":{"title":"1835 - Account of Coals at London Market including their prices. Wallsend Colliery is featured on the list. "},"geometry":{"type":"Point","coordinates":[-1.5170374,54.991228]}},{"@id":"Page 461 / Coals at London Market (thecommonroom.org.uk)","type":"Feature","properties":{"title":"1835 - Account of Coals at London Market including their prices. Waldridge Colliery is featured on the list. "},"geometry":{"type":"Point","coordinates":[-1.610895,-1.610895]}},{"@id":"Page 461 / Coals at London Market (thecommonroom.org.uk)","type":"Feature","properties":{"title":"1835 - Account of Coals at London Market including their prices. Howden Colliery is featured on the list. "},"geometry":{"type":"Point","coordinates":[-1.484939,54.992157]}},{"@id":"Page 461 / Coals at London Market (thecommonroom.org.uk)","type":"Feature","properties":{"title":"1835 - Account of Coals at London Market including their prices. Gosforth Colliery is featured on the list. "},"geometry":{"type":"Point","coordinates":[-1.6043975,55.007719]}},{"@id":"Page 461 / Coals at London Market (thecommonroom.org.uk)","type":"Feature","properties":{"title":"1835 - Account of Coals at London Market including their prices. Heaton Colliery is featured on the list. "},"geometry":{"type":"Point","coordinates":[-1.5883318,54.98866]}},{"@id":"Page 461 / Coals at London Market (thecommonroom.org.uk)","type":"Feature","properties":{"title":"1835 - Account of Coals at London Market including their prices. Hilda Colliery is featured on the list. "},"geometry":{"type":"Point","coordinates":[-1.4352215,54.994417]}},{"@id":"Page 461 / Coals at London Market (thecommonroom.org.uk)","type":"Feature","properties":{"title":"1835 - Account of Coals at London Market including their prices. Lanchester Colliery is featured on the list. "},"geometry":{"type":"Point","coordinates":[-1.7594832,54.827185]}},{"@id":"Page 461 / Coals at London Market (thecommonroom.org.uk)","type":"Feature","properties":{"title":"1835 - Account of Coals at London Market including their prices. Walker Colliery is featured on the list. "},"geometry":{"type":"Point","coordinates":[-1.5427555,54.96985]}},{"@id":"Page 461 / Coals at London Market (thecommonroom.org.uk)","type":"Feature","properties":{"title":"1835 - Account of Coals at London Market including their prices. Killingworth Colliery is featured on the list. "},"geometry":{"type":"Point","coordinates":[-1.5540852,55.030073]}},{"@id":"Page 461 / Coals at London Market (thecommonroom.org.uk)","type":"Feature","properties":{"title":"1835 - Account of Coals at London Market including their prices. Peareth Colliery is featured on the list. "},"geometry":{"type":"Point","coordinates":[-1.5196812,54.877022]}},{"@id":"Page 461 / Coals at London Market (thecommonroom.org.uk)","type":"Feature","properties":{"title":"1835 - Account of Coals at London Market including their prices. Chirton Colliery is featured on the list. "},"geometry":{"type":"Point","coordinates":[-1.4540994,55.006194]}},{"@id":"Page 461 / Coals at London Market (thecommonroom.org.uk)","type":"Feature","properties":{"title":"1835 - Account of Coals at London Market including their prices. Russell's Wallsend Pit is featured on the list. "},"geometry":{"type":"Point","coordinates":[-1.5171472,54.991193]}},{"@id":"Page 461 / Coals at London Market (thecommonroom.org.uk)","type":"Feature","properties":{"title":"1835 - Account of Coals at London Market including their prices. Eden Main Pit is featured on the list. "},"geometry":{"type":"Point","coordinates":[-1.5171472,54.991193]}},{"@id":"Page 461 / Coals at London Market (thecommonroom.org.uk)","type":"Feature","properties":{"title":"1835 - Account of Coals at London Market including their prices. Hetton Colliery is featured on the list. "},"geometry":{"type":"Point","coordinates":[-1.4420939,54.816481]}},{"@id":"Page 461 / Coals at London Market (thecommonroom.org.uk)","type":"Feature","properties":{"title":"1835 - Account of Coals at London Market including their prices. Lambton Colliery is featured on the list. "},"geometry":{"type":"Point","coordinates":[-1.506311,54.850099]}},{"@id":"Page 461 / Coals at London Market (thecommonroom.org.uk)","type":"Feature","properties":{"title":"1835 - Account of Coals at London Market including their prices. Haswell Colliery is featured on the list. "},"geometry":{"type":"Point","coordinates":[-1.420204,54.773719]}},{"@id":"Page 461 / Coals at London Market (thecommonroom.org.uk)","type":"Feature","properties":{"title":"1835 - Account of Coals at London Market including their prices. Deanery Colliery is featured on the list. "},"geometry":{"type":"Point","coordinates":[-1.6582245,54.643166]}},{"@id":"Page 461 / Coals at London Market (thecommonroom.org.uk)","type":"Feature","properties":{"title":"1835 - Account of Coals at London Market including their prices. St Helen's Colliery is featured on the list. "},"geometry":{"type":"Point","coordinates":[-1.6978546,54.637744]}},{"@id":"Page 461 / Coals at London Market (thecommonroom.org.uk)","type":"Feature","properties":{"title":"1835 - Account of Coals at London Market including their prices. Tanfield Colliery is featured on the list. "},"geometry":{"type":"Point","coordinates":[-1.6990648,54.891204]}},{"@id":"Page 461 / Coals at London Market (thecommonroom.org.uk)","type":"Feature","properties":{"title":"1835 - Account of Coals at London Market including their prices. Adelaide Colliery is featured on the list. "},"geometry":{"type":"Point","coordinates":[-1.6637188,54.643945]}},{"@id":"Page 461 / Coals at London Market (thecommonroom.org.uk)","type":"Feature","properties":{"title":"1835 - Account of Coals at London Market including their prices. Butterknowle Colliery is featured on the list. "},"geometry":{"type":"Point","coordinates":[-1.8342394,54.626325]}},{"@id":"Page 461 / Coals at London Market (thecommonroom.org.uk)","type":"Feature","properties":{"title":"1835 - Account of Coals at London Market including their prices. Gordon House Colliery is featured on the list. "},"geometry":{"type":"Point","coordinates":[-1.7986778,54.61369]}},{"@id":"Page 461 / Coals at London Market (thecommonroom.org.uk)","type":"Feature","properties":{"title":"1835 - Account of Coals at London Market including their prices. South Durham Colliery is featured on the list. "},"geometry":{"type":"Point","coordinates":[-1.629722222,54.64638889]}},{"@id":"Page 461 / Coals at London Market (thecommonroom.org.uk)","type":"Feature","properties":{"title":"1835 - Account of Coals at London Market including their prices. North Tees Colliery is featured on the list. "},"geometry":{"type":"Point","coordinates":[-1.8115319,54.542634]}},{"@id":"Page 461 / Coals at London Market (thecommonroom.org.uk)","type":"Feature","properties":{"title":"1835 - Account of Coals at London Market including their prices. West Hetton Colliery is featured on the list. "},"geometry":{"type":"Point","coordinates":[-1.4999758,54.728754]}},{"@id":"Page 461 / Coals at London Market (thecommonroom.org.uk)","type":"Feature","properties":{"title":"1835 - Account of Coals at London Market including their prices. Victoria Colliery is featured on the list. "},"geometry":{"type":"Point","coordinates":[-1.8250156,54.610136]}},{"@id":"Page 461 / Coals at London Market (thecommonroom.org.uk)","type":"Feature","properties":{"title":"1835 - Account of Coals at London Market including their prices. Cowpen Colliery is featured on the list. "},"geometry":{"type":"Point","coordinates":[-1.5315941,55.119509]}},{"@id":"Page 461 / Coals at London Market (thecommonroom.org.uk)","type":"Feature","properties":{"title":"1835 - Account of Coals at London Market including their prices. Cowpen Colliery is featured on the list. "},"geometry":{"type":"Point","coordinates":[-1.514167,55.083889]}},{"@id":"Page 461 / Coals at London Market (thecommonroom.org.uk)","type":"Feature","properties":{"title":"1835 - Account of Coals at London Market including their prices. Warbro Park Colliery is featured on the list. "},"geometry":{"type":"Point","coordinates":[-1.46646,53.51773]}},{"@id":"Page 461 / Coals at London Market (thecommonroom.org.uk)","type":"Feature","properties":{"title":"1835 - Account of Coals at London Market including their prices. Netherton Colliery's Howard Pit is featured on the list. "},"geometry":{"type":"Point","coordinates":[-1.6263354,55.137053]}},{"@id":"Page 461 / Coals at London Market (thecommonroom.org.uk)","type":"Feature","properties":{"title":"1835 - Account of Coals at London Market including their prices. Silkstone Colliery's Howard Pit is featured on the list. "},"geometry":{"type":"Point","coordinates":[-1.5642989,53.543188]}},{"@id":"Page 461 / Coals at London Market (thecommonroom.org.uk)","type":"Feature","properties":{"title":"1835 - Account of Coals at London Market including their prices. Gawber Hall Colliery is featured on the list. "},"geometry":{"type":"Point","coordinates":[-1.4962133,53.542921]}},{"@id":"Page 461 / Coals at London Market (thecommonroom.org.uk)","type":"Feature","properties":{"title":"1835 - Account of Coals at London Market including their prices. Tranent Colliery is featured on the list. "},"geometry":{"type":"Point","coordinates":[-2.9387449,55.94361]}},{"@id":"Page 461 / Coals at London Market (thecommonroom.org.uk)","type":"Feature","properties":{"title":"1835 - Account of Coals at London Market including their prices. Flockton Colliery is featured on the list. "},"geometry":{"type":"Point","coordinates":[-1.631,53.632]}},{"@id":"https://thecommonroom.org.uk/collection/handbill-giving-an-account-of-the-meeting-of-pitmen-on-the-town-moor-16404/page-218-219-27234/#collection-gallery","type":"Feature","properties":{"title":"1831 - Handbill giving an account of the meeting of pitmen on the Town Moor where they voiced complaints abour working conditions and wages"},"geometry":{"type":"Point","coordinates":[-1.633,54.992]}},{"@id":"https://thecommonroom.org.uk/collection/coal-shipped-from-english-scottish-and-irish-ports-16113/page-499-504-26942/#collection-gallery","type":"Feature","properties":{"title":"1837 - A document listing the quantity of coal shipped from English, Scottish and Irish ports in 1836 and 1837. Port of Dover appears on the list"},"geometry":{"type":"Point","coordinates":[1.329444,51.119167]}},{"@id":"https://thecommonroom.org.uk/collection/coal-shipped-from-english-scottish-and-irish-ports-16113/page-499-504-26942/#collection-gallery","type":"Feature","properties":{"title":"1837 - A document listing the quantity of coal shipped from English, Scottish and Irish ports in 1836 and 1837. Shoreham Port ppears on the list"},"geometry":{"type":"Point","coordinates":[-0.2381705,50.831132]}},{"@id":"https://thecommonroom.org.uk/collection/coal-shipped-from-english-scottish-and-irish-ports-16113/page-499-504-26942/#collection-gallery","type":"Feature","properties":{"title":"1837 - A document listing the quantity of coal shipped from English, Scottish and Irish ports in 1836 and 1837. Portsmouth Port ppears on the list"},"geometry":{"type":"Point","coordinates":[-1.090738,50.812037]}},{"@id":"https://thecommonroom.org.uk/collection/coal-shipped-from-english-scottish-and-irish-ports-16113/page-499-504-26942/#collection-gallery","type":"Feature","properties":{"title":"1837 - A document listing the quantity of coal shipped from English, Scottish and Irish ports in 1836 and 1837. Poole Port ppears on the list"},"geometry":{"type":"Point","coordinates":[-1.99248,50.7096]}},{"@id":"https://thecommonroom.org.uk/collection/coal-shipped-from-english-scottish-and-irish-ports-16113/page-499-504-26942/#collection-gallery","type":"Feature","properties":{"title":"1837 - A document listing the quantity of coal shipped from English, Scottish and Irish ports in 1836 and 1837. Dartmouth Harbour ppears on the list"},"geometry":{"type":"Point","coordinates":[-3.577778,50.351667]}},{"@id":"https://thecommonroom.org.uk/collection/coal-shipped-from-english-scottish-and-irish-ports-16113/page-499-504-26942/#collection-gallery","type":"Feature","properties":{"title":"1837 - A document listing the quantity of coal shipped from English, Scottish and Irish ports in 1836 and 1837. Plymouth Harbour ppears on the list"},"geometry":{"type":"Point","coordinates":[-4.15434,50.3678]}},{"@id":"https://thecommonroom.org.uk/collection/coal-shipped-from-english-scottish-and-irish-ports-16113/page-499-504-26942/#collection-gallery","type":"Feature","properties":{"title":"1837 - A document listing the quantity of coal shipped from English, Scottish and Irish ports in 1836 and 1837. Falmouth Port ppears on the list"},"geometry":{"type":"Point","coordinates":[-5.05566,50.1523]}},{"@id":"https://thecommonroom.org.uk/collection/coal-shipped-from-english-scottish-and-irish-ports-16113/page-499-504-26942/#collection-gallery","type":"Feature","properties":{"title":"1837 - A document listing the quantity of coal shipped from English, Scottish and Irish ports in 1836 and 1837. Port of Bristol ppears on the list"},"geometry":{"type":"Point","coordinates":[-2.71621,51.50329]}},{"@id":"https://thecommonroom.org.uk/collection/coal-shipped-from-english-scottish-and-irish-ports-16113/page-499-504-26942/#collection-gallery","type":"Feature","properties":{"title":"1837 - A document listing the quantity of coal shipped from English, Scottish and Irish ports in 1836 and 1837. Gloucester Harbour appears on the list"},"geometry":{"type":"Point","coordinates":[-2.251944,51.8625]}},{"@id":"https://thecommonroom.org.uk/collection/coal-shipped-from-english-scottish-and-irish-ports-16113/page-499-504-26942/#collection-gallery","type":"Feature","properties":{"title":"1837 - A document listing the quantity of coal shipped from English, Scottish and Irish ports in 1836 and 1837. The port of Cardiff (Cardiff Docks) appears on the list"},"geometry":{"type":"Point","coordinates":[-3.15382,51.46533]}},{"@id":"https://thecommonroom.org.uk/collection/coal-shipped-from-english-scottish-and-irish-ports-16113/page-499-504-26942/#collection-gallery","type":"Feature","properties":{"title":"1837 - A document listing the quantity of coal shipped from English, Scottish and Irish ports in 1836 and 1837. The port of Newport appears on the list"},"geometry":{"type":"Point","coordinates":[-2.9846617,51.565256]}},{"@id":"https://thecommonroom.org.uk/collection/coal-shipped-from-english-scottish-and-irish-ports-16113/page-499-504-26942/#collection-gallery","type":"Feature","properties":{"title":"1837 - A document listing the quantity of coal shipped from English, Scottish and Irish ports in 1836 and 1837. Swansea Port appears on the list"},"geometry":{"type":"Point","coordinates":[-3.91844,51.61646]}},{"@id":"https://thecommonroom.org.uk/collection/coal-shipped-from-english-scottish-and-irish-ports-16113/page-499-504-26942/#collection-gallery","type":"Feature","properties":{"title":"1837 - A document listing the quantity of coal shipped from English, Scottish and Irish ports in 1836 and 1837. Llanelli (or Llanelly) docks appears on the list"},"geometry":{"type":"Point","coordinates":[-4.17322,51.67522]}},{"@id":"https://thecommonroom.org.uk/collection/coal-shipped-from-english-scottish-and-irish-ports-16113/page-499-504-26942/#collection-gallery","type":"Feature","properties":{"title":"1837 - A document listing the quantity of coal shipped from English, Scottish and Irish ports in 1836 and 1837. Milford Port appears on the list"},"geometry":{"type":"Point","coordinates":[-5.052376,51.70778]}},{"@id":"https://thecommonroom.org.uk/collection/coal-shipped-from-english-scottish-and-irish-ports-16113/page-499-504-26942/#collection-gallery","type":"Feature","properties":{"title":"1837 - A document listing the quantity of coal shipped from English, Scottish and Irish ports in 1836 and 1837. Chester Old Port appears on the list"},"geometry":{"type":"Point","coordinates":[-2.9023864,53.190852]}},{"@id":"https://thecommonroom.org.uk/collection/coal-shipped-from-english-scottish-and-irish-ports-16113/page-499-504-26942/#collection-gallery","type":"Feature","properties":{"title":"1837 - A document listing the quantity of coal shipped from English, Scottish and Irish ports in 1836 and 1837. Liverpool Port appears on the list"},"geometry":{"type":"Point","coordinates":[-2.996,53.406]}},{"@id":"https://thecommonroom.org.uk/collection/coal-shipped-from-english-scottish-and-irish-ports-16113/page-499-504-26942/#collection-gallery","type":"Feature","properties":{"title":"1837 - A document listing the quantity of coal shipped from English, Scottish and Irish ports in 1836 and 1837. Lancaster Port appears on the list"},"geometry":{"type":"Point","coordinates":[-2.8499743,53.998822]}},{"@id":"https://thecommonroom.org.uk/collection/coal-shipped-from-english-scottish-and-irish-ports-16113/page-499-504-26942/#collection-gallery","type":"Feature","properties":{"title":"1837 - A document listing the quantity of coal shipped from English, Scottish and Irish ports in 1836 and 1837. Whitehaven Port appears on the list"},"geometry":{"type":"Point","coordinates":[-3.593807,54.55091]}},{"@id":"https://thecommonroom.org.uk/collection/coal-shipped-from-english-scottish-and-irish-ports-16113/page-499-504-26942/#collection-gallery","type":"Feature","properties":{"title":"1837 - A document listing the quantity of coal shipped from English, Scottish and Irish ports in 1836 and 1837. Port of Carlise appears on the list"},"geometry":{"type":"Point","coordinates":[-3.1865323,54.948652]}},{"@id":"https://thecommonroom.org.uk/collection/coal-shipped-from-english-scottish-and-irish-ports-16113/page-499-504-26942/#collection-gallery","type":"Feature","properties":{"title":"1837 - A document listing the quantity of coal shipped from English, Scottish and Irish ports in 1836 and 1837. Port of Berwick appears on the list"},"geometry":{"type":"Point","coordinates":[-2.002389,55.76389]}},{"@id":"https://thecommonroom.org.uk/collection/coal-shipped-from-english-scottish-and-irish-ports-16113/page-499-504-26942/#collection-gallery","type":"Feature","properties":{"title":"1837 - A document listing the quantity of coal shipped from English, Scottish and Irish ports in 1836 and 1837. Port of Newcastle (now Port of the Tyne) appears on the list"},"geometry":{"type":"Point","coordinates":[-1.4527902,54.992471]}},{"@id":"https://thecommonroom.org.uk/collection/coal-shipped-from-english-scottish-and-irish-ports-16113/page-499-504-26942/#collection-gallery","type":"Feature","properties":{"title":"1837 - A document listing the quantity of coal shipped from English, Scottish and Irish ports in 1836 and 1837. Sunderland Port appears on the list"},"geometry":{"type":"Point","coordinates":[-1.381408,54.91129]}},{"@id":"https://thecommonroom.org.uk/collection/coal-shipped-from-english-scottish-and-irish-ports-16113/page-499-504-26942/#collection-gallery","type":"Feature","properties":{"title":"1837 - A document listing the quantity of coal shipped from English, Scottish and Irish ports in 1836 and 1837. Stockton Port, which has now closed appears on the list"},"geometry":{"type":"Point","coordinates":[-1.308264,54.56527]}},{"@id":"https://thecommonroom.org.uk/collection/coal-shipped-from-english-scottish-and-irish-ports-16113/page-499-504-26942/#collection-gallery","type":"Feature","properties":{"title":"1837 - A document listing the quantity of coal shipped from English, Scottish and Irish ports in 1836 and 1837. Hull Port appears on the list"},"geometry":{"type":"Point","coordinates":[-0.2797584,53.74237]}},{"@id":"https://thecommonroom.org.uk/collection/coal-shipped-from-english-scottish-and-irish-ports-16113/page-499-504-26942/#collection-gallery","type":"Feature","properties":{"title":"1837 - A document listing the quantity of coal shipped from English, Scottish and Irish ports in 1836 and 1837. Goole Port appears on the list"},"geometry":{"type":"Point","coordinates":[-0.8709594,53.69931]}},{"@id":"https://thecommonroom.org.uk/collection/coal-shipped-from-english-scottish-and-irish-ports-16113/page-499-504-26942/#collection-gallery","type":"Feature","properties":{"title":"1837 - A document listing the quantity of coal shipped from English, Scottish and Irish ports in 1836 and 1837. Ipswich Port appears on the list"},"geometry":{"type":"Point","coordinates":[1.158197,52.04032]}},{"@id":"https://thecommonroom.org.uk/collection/coal-shipped-from-english-scottish-and-irish-ports-16113/page-499-504-26942/#collection-gallery","type":"Feature","properties":{"title":"1837 - A document listing the quantity of coal shipped from English, Scottish and Irish ports in 1836 and 1837. Maldon Port appears on the list"},"geometry":{"type":"Point","coordinates":[-0.6748583333,51.73183333]}},{"@id":"https://thecommonroom.org.uk/collection/coal-shipped-from-english-scottish-and-irish-ports-16113/page-499-504-26942/#collection-gallery","type":"Feature","properties":{"title":"1837 - A document listing the quantity of coal shipped from English, Scottish and Irish ports in 1836 and 1837. Port of Leith appears on the list"},"geometry":{"type":"Point","coordinates":[-3.171328,55.98225]}},{"@id":"https://thecommonroom.org.uk/collection/coal-shipped-from-english-scottish-and-irish-ports-16113/page-499-504-26942/#collection-gallery","type":"Feature","properties":{"title":"1837 - A document listing the quantity of coal shipped from English, Scottish and Irish ports in 1836 and 1837. Borrowstounness (Bo'ness) harbour, which is now closed, appears on the list"},"geometry":{"type":"Point","coordinates":[-3.6102,56.0159]}},{"@id":"https://thecommonroom.org.uk/collection/coal-shipped-from-english-scottish-and-irish-ports-16113/page-499-504-26942/#collection-gallery","type":"Feature","properties":{"title":"1837 - A document listing the quantity of coal shipped from English, Scottish and Irish ports in 1836 and 1837. Port of Grangemouth appears on the list"},"geometry":{"type":"Point","coordinates":[-3.705,56.0285]}},{"@id":"https://thecommonroom.org.uk/collection/coal-shipped-from-english-scottish-and-irish-ports-16113/page-499-504-26942/#collection-gallery","type":"Feature","properties":{"title":"1837 - A document listing the quantity of coal shipped from English, Scottish and Irish ports in 1836 and 1837. Harbour of Kirkcaldy,  appears on the list"},"geometry":{"type":"Point","coordinates":[-3.150157,56.11389]}},{"@id":"https://thecommonroom.org.uk/collection/coal-shipped-from-english-scottish-and-irish-ports-16113/page-499-504-26942/#collection-gallery","type":"Feature","properties":{"title":"1837 - A document listing the quantity of coal shipped from English, Scottish and Irish ports in 1836 and 1837. Port of Campbeltown , which is now closed, appears on the list"},"geometry":{"type":"Point","coordinates":[-5.60035,55.4255]}},{"@id":"https://thecommonroom.org.uk/collection/coal-shipped-from-english-scottish-and-irish-ports-16113/page-499-504-26942/#collection-gallery","type":"Feature","properties":{"title":"1837 - A document listing the quantity of coal shipped from English, Scottish and Irish ports in 1836 and 1837. Port of Greenock, appears on the list"},"geometry":{"type":"Point","coordinates":[-4.743073,55.94802]}},{"@id":"https://thecommonroom.org.uk/collection/coal-shipped-from-english-scottish-and-irish-ports-16113/page-499-504-26942/#collection-gallery","type":"Feature","properties":{"title":"1837 - A document listing the quantity of coal shipped from English, Scottish and Irish ports in 1836 and 1837. Port Glasgow appears on the list"},"geometry":{"type":"Point","coordinates":[-4.682665,55.93628]}},{"@id":"https://thecommonroom.org.uk/collection/coal-shipped-from-english-scottish-and-irish-ports-16113/page-499-504-26942/#collection-gallery","type":"Feature","properties":{"title":"1837 - A document listing the quantity of coal shipped from English, Scottish and Irish ports in 1836 and 1837. Irvine Harbour appears on the list"},"geometry":{"type":"Point","coordinates":[-4.68444,55.6078]}},{"@id":"https://thecommonroom.org.uk/collection/coal-shipped-from-english-scottish-and-irish-ports-16113/page-499-504-26942/#collection-gallery","type":"Feature","properties":{"title":"1837 - A document listing the quantity of coal shipped from English, Scottish and Irish ports in 1836 and 1837. Port of Ayr appears on the list"},"geometry":{"type":"Point","coordinates":[-4.633297,55.46622]}},{"@id":"https://thecommonroom.org.uk/collection/coal-shipped-from-english-scottish-and-irish-ports-16113/page-499-504-26942/#collection-gallery","type":"Feature","properties":{"title":"1837 - A document listing the quantity of coal shipped from English, Scottish and Irish ports in 1836 and 1837. Port of Dublin appears on the list"},"geometry":{"type":"Point","coordinates":[-6.206939,53.3455]}},{"@id":"https://thecommonroom.org.uk/collection/coal-shipped-from-english-scottish-and-irish-ports-16113/page-499-504-26942/#collection-gallery","type":"Feature","properties":{"title":"1837 - A document listing the quantity of coal shipped from English, Scottish and Irish ports in 1836 and 1837. Port of Watford appears on the list"},"geometry":{"type":"Point","coordinates":[-7.114593,52.26241]}},{"@id":"Page 507 / To regulate the Port of London (thecommonroom.org.uk)","type":"Feature","properties":{"title":"1838 - A newspaper cuttings regarding measures to regulate the Port of London after complaints of fraud was made"},"geometry":{"type":"Point","coordinates":[-0.04960075,51.49743]}},{"@id":"https://thecommonroom.org.uk/collection/coal-shipped-from-english-scottish-and-irish-ports-16113/page-499-504-26942/#collection-gallery","type":"Feature","properties":{"title":"1837 - A document listing the quantity of coal shipped from English, Scottish and Irish ports in 1836 and 1837. Port of Limerick appears on the list"},"geometry":{"type":"Point","coordinates":[-8.642039,52.66005]}},{"@id":"Page 289 / Blank (thecommonroom.org.uk)","type":"Feature","properties":{"title":"Moor hall"},"geometry":{"type":"Point","coordinates":[-1.609452762,54.96887078]}},{"@id":"Page 371-372 / Reports of large meetings at Blyth, Blackfell and Jarrow re dispute (thecommonroom.org.uk)","type":"Feature","properties":{"title":"Bates COlliery in Blyth"},"geometry":{"type":"Point","coordinates":[-1.5215887,55.134126]}},{"@id":"Page 371-372 / Reports of large meetings at Blyth, Blackfell and Jarrow re dispute (thecommonroom.org.uk)","type":"Feature","properties":{"title":"Bedlington Colliery"},"geometry":{"type":"Point","coordinates":[-1.574867,55.138817]}},{"@id":"Page 371-372 / Reports of large meetings at Blyth, Blackfell and Jarrow re dispute (thecommonroom.org.uk)","type":"Feature","properties":{"title":"Netherton"},"geometry":{"type":"Point","coordinates":[-1.6263354,55.137053]}},{"@id":"Page 371-372 / Reports of large meetings at Blyth, Blackfell and Jarrow re dispute (thecommonroom.org.uk)","type":"Feature","properties":{"title":"Cowpen"},"geometry":{"type":"Point","coordinates":[-1.514167,55.083889]}},{"@id":"Page 371-372 / Reports of large meetings at Blyth, Blackfell and Jarrow re dispute (thecommonroom.org.uk)","type":"Feature","properties":{"title":"Jarrow"},"geometry":{"type":"Point","coordinates":[-1.4909374,54.981309]}},{"@id":"Page 365 / Newspaper cutting re rewards for information on assaults by pitmen at Walker and Bigges Main (thecommonroom.org.uk)","type":"Feature","properties":{"title":"Walker"},"geometry":{"type":"Point","coordinates":[-1.5427555,54.96985]}},{"@id":"Page 365 / Newspaper cutting re rewards for information on assaults by pitmen at Walker and Bigges Main (thecommonroom.org.uk)","type":"Feature","properties":{"title":"Bigge's main"},"geometry":{"type":"Point","coordinates":[-1.5532479,54.997028]}},{"@id":"Page 364 / Newspaper reports re meetings of miners at Blackfell for higher wages (thecommonroom.org.uk)","type":"Feature","properties":{"title":"1831 - A newspaper report about a meeting miners in Blackell regarding wages"},"geometry":{"type":"Point","coordinates":[-1.5663273,54.913233]}},{"@id":"Page 284 / Handbill entitled To the Public being an answer to the Tyne Mercury from a delegate meeting of the pitmen. (thecommonroom.org.uk)","type":"Feature","properties":{"title":"1831 - A handbill published by a delagation of Pitmen \"of the Tyne and Wear\" in response to what they felt was a misrepresentation of their caue and meetings by the Tyne Mercury, a Northen Newspaper at the time.  A meeting held at Black Fell Colliery, later known as Mount Moor Colliery, is mentioned within the handbill."},"geometry":{"type":"Point","coordinates":[-1.5663273,54.913233]}},{"@id":"Page 284 / Handbill entitled To the Public being an answer to the Tyne Mercury from a delegate meeting of the pitmen. (thecommonroom.org.uk)","type":"Feature","properties":{"title":"1831 - A handbill published by a delagation of Pitmen \"of the Tyne and Wear\" in response to what they felt was a misrepresentation of their caue and meetings by the Tyne Mercury, a Northen Newspaper at the time.  A meeting held at Seghill Colliery, is mentioned within the handbill."},"geometry":{"type":"Point","coordinates":[-1.5474347,55.067728]}},{"@id":"Page 469 / Handbill giving a calendar of prisoners in Durham, Newcastle and Morpeth gaols coming to trial at the Assizes. (thecommonroom.org.uk)","type":"Feature","properties":{"title":"1832 - A hanbill published giving a calender of prisoners in local gaols coming to trial for charges ranging from concealing a pregnany to murder. Durham Gaol is featured, with 24 defendants. "},"geometry":{"type":"Point","coordinates":[-1.568056,54.773333]}},{"@id":"Page 469 / Handbill giving a calendar of prisoners in Durham, Newcastle and Morpeth gaols coming to trial at the Assizes. (thecommonroom.org.uk)","type":"Feature","properties":{"title":"1832 - A hanbill published giving a calender of prisoners in local gaols coming to trial for charges ranging from concealing a pregnany to murder. Newcastle Gaol is featured, with 24 defendants. "},"geometry":null},{"@id":"Page 469 / Handbill giving a calendar of prisoners in Durham, Newcastle and Morpeth gaols coming to trial at the Assizes. (thecommonroom.org.uk)","type":"Feature","properties":{"title":"1832 - A hanbill published giving a calender of prisoners in local gaols coming to trial for charges ranging from concealing a pregnany to murder. Morpeth Gaol is featured, with 13 defendants. "},"geometry":{"type":"Point","coordinates":[-1.687131,55.167057]}},{"@id":"Page 467 / Newspaper report from Local Papers of murder of magistrate Nicholas Fairles at Jarrow Colliery (thecommonroom.org.uk)","type":"Feature","properties":{"title":"1832 - Newspaper report from  a local paper regarding the murder of Magistrate Nicholas Fairles. Fairles was murdered at Jarrow Colliery by \"pitmen\""},"geometry":{"type":"Point","coordinates":[-1.4826042,54.982909]}},{"@id":"https://thecommonroom.org.uk/collection/pamphlet-entitled-impartial-enquiry-into-the-causes-of-dispute-between-coal-owners-and-pitmen-by-scrutator-16501/page-437-448-27331/#collection-gallery","type":"Feature","properties":{"title":"1832 - Pamphlet entitled impartial enquiry into the Causes of Dispute between Coal Owners and Pitment. In the pamphlet it mentions rioting at Waldridge fell. "},"geometry":{"type":"Point","coordinates":[-1.610556,54.840278]}},{"@id":"https://thecommonroom.org.uk/collection/pamphlet-entitled-impartial-enquiry-into-the-causes-of-dispute-between-coal-owners-and-pitmen-by-scrutator-16501/page-437-448-27331/#collection-gallery","type":"Feature","properties":{"title":"1832 - Pamphlet entitled impartial enquiry into the Causes of Dispute between Coal Owners and Pitment. In the pamphlet it mentions Hetton where the writer says \"atrocities (where) committed\""},"geometry":{"type":"Point","coordinates":[-1.4420939,54.816481]}},{"@id":"https://thecommonroom.org.uk/collection/newspaper-cuttings-re-the-pitmens-dispute-16496/page-431-432-27326/#collection-gallery","type":"Feature","properties":{"title":"1832 - Newspaper cutting regarding the Pitman's dispute. The clipping highlights the dispute at Burdon Main Colliery "},"geometry":{"type":"Point","coordinates":[-1.4497382,54.998132]}},{"@id":"https://thecommonroom.org.uk/collection/newspaper-cuttings-re-the-pitmens-dispute-16496/page-431-432-27326/#collection-gallery","type":"Feature","properties":{"title":"1832 - Newspaper cutting regarding the Pitman's dispute. The clipping highlights an assault that took place at Tyne Main colliery"},"geometry":{"type":"Point","coordinates":[-1.5800664,54.951033]}},{"@id":"https://thecommonroom.org.uk/collection/newspaper-cuttings-re-the-pitmens-dispute-16496/page-431-432-27326/#collection-gallery","type":"Feature","properties":{"title":"1832 - Newspaper cutting regarding the Pitman's dispute. The clipping highlights an assault that took place at Friar's Goose colliery"},"geometry":{"type":"Point","coordinates":[-1.5863016,54.952025]}},{"@id":"https://thecommonroom.org.uk/collection/newspaper-cuttings-re-the-pitmens-dispute-16492/page-425-27322/","type":"Feature","properties":{"title":"1832 - Newspaper cutting regarding the pitmen's dispute. The clipping mentions the collieries which have been left \"unworked\" due to the dispute, including St Lawrence Colliery in Byker"},"geometry":{"type":"Point","coordinates":[-1.5818615,54.970638]}},{"@id":"https://thecommonroom.org.uk/collection/newspaper-cuttings-re-the-pitmens-dispute-16492/page-425-27322/","type":"Feature","properties":{"title":"1832 - Newspaper cutting regarding the pitmen's dispute. The clipping mentions the collieries which have been left \"unworked\" due to the dispute, including Burdon Main Colliery where police were used to remove miner's from their homes"},"geometry":{"type":"Point","coordinates":[-1.4497382,54.998132]}},{"@id":"https://thecommonroom.org.uk/collection/newspaper-cuttings-re-the-pitmens-dispute-16492/page-425-27322/","type":"Feature","properties":{"title":"1832 - Newspaper cutting regarding the pitmen's dispute. The clipping mentions the collieries which have been left \"unworked\" due to the dispute, including Cramlington Colliery"},"geometry":{"type":"Point","coordinates":[-1.5660787,55.081275]}},{"@id":"https://thecommonroom.org.uk/collection/newspaper-cuttings-re-the-pitmens-dispute-16492/page-425-27322/","type":"Feature","properties":{"title":"1832 - Newspaper cutting regarding the pitmen's dispute. The clipping mentions the collieries which have been left \"unworked\" due to the dispute, including Elswick Colliery where pitmen were due to be removed from their homes due to the dispute"},"geometry":{"type":"Point","coordinates":[-1.6413,54.972302]}},{"@id":"https://thecommonroom.org.uk/collection/newspaper-cuttings-re-the-pitmens-dispute-16492/page-425-27322/","type":"Feature","properties":{"title":"1832 - Newspaper cutting regarding the pitmen's dispute. The clipping mentions the collieries which have been left \"unworked\" due to the dispute, including Fawdon Colliery where pitmen were removed by the millitary and local police from their homes. This was to make room for other work men during the dispute"},"geometry":{"type":"Point","coordinates":[-1.6460854,55.014362]}},{"@id":"https://thecommonroom.org.uk/collection/newspaper-cuttings-re-the-pitmens-dispute-16492/page-425-27322/","type":"Feature","properties":{"title":"1832 - Newspaper cutting regarding the pitmen's dispute. The clipping mentions the collieries which have been left \"unworked\" due to the dispute, including Felling Colliery"},"geometry":{"type":"Point","coordinates":[-1.5721357,54.955364]}},{"@id":"https://thecommonroom.org.uk/collection/newspaper-cuttings-re-the-pitmens-dispute-16492/page-425-27322/","type":"Feature","properties":{"title":"1832 - Newspaper cutting regarding the pitmen's dispute. The clipping mentions the collieries which have been left \"unworked\" due to the dispute, including Hebburn Colliery"},"geometry":{"type":"Point","coordinates":[-1.5102967,54.98262]}},{"@id":"https://thecommonroom.org.uk/collection/newspaper-cuttings-re-the-pitmens-dispute-16492/page-425-27322/","type":"Feature","properties":{"title":"1832 - Newspaper cutting regarding the pitmen's dispute. The clipping mentions the collieries which have been left \"unworked\" due to the dispute, including Heworth Colliery"},"geometry":{"type":"Point","coordinates":[-1.5598136,54.938371]}},{"@id":"https://thecommonroom.org.uk/collection/newspaper-cuttings-re-the-pitmens-dispute-16492/page-425-27322/","type":"Feature","properties":{"title":"1832 - Newspaper cutting regarding the pitmen's dispute. The clipping mentions the collieries which have been left \"unworked\" due to the dispute, including Jesmond Colliery"},"geometry":{"type":"Point","coordinates":[-1.6014575,54.988838]}},{"@id":"https://thecommonroom.org.uk/collection/newspaper-cuttings-re-the-pitmens-dispute-16492/page-425-27322/","type":"Feature","properties":{"title":"1832 - Newspaper cutting regarding the pitmen's dispute. The clipping mentions the collieries which have been left \"unworked\" due to the dispute, including Wallsend Manor Colliery"},"geometry":{"type":"Point","coordinates":[-1.5337258,54.987474]}},{"@id":"https://thecommonroom.org.uk/collection/newspaper-cuttings-re-the-pitmens-dispute-16492/page-425-27322/","type":"Feature","properties":{"title":"1832 - Newspaper cutting regarding the pitmen's dispute. The clipping mentions the collieries which have been left \"unworked\" due to the dispute, including Mount Moor Colliery in Springwell"},"geometry":{"type":"Point","coordinates":[-1.5563055,54.923846]}},{"@id":"https://thecommonroom.org.uk/collection/newspaper-cuttings-re-the-pitmens-dispute-16492/page-425-27322/","type":"Feature","properties":{"title":"1832 - Newspaper cutting regarding the pitmen's dispute. The clipping mentions the collieries which have been left \"unworked\" due to the dispute, including Pelaw Main Colliery"},"geometry":{"type":"Point","coordinates":[-1.5891288,54.864561]}},{"@id":"https://thecommonroom.org.uk/collection/newspaper-cuttings-re-the-pitmens-dispute-16492/page-425-27322/","type":"Feature","properties":{"title":"1832 - Newspaper cutting regarding the pitmen's dispute. The clipping mentions the collieries which have been left \"unworked\" due to the dispute, including Sheriff's Hill colliery"},"geometry":{"type":"Point","coordinates":[-1.6006493,54.933246]}},{"@id":"https://thecommonroom.org.uk/collection/newspaper-cuttings-re-the-pitmens-dispute-16492/page-425-27322/","type":"Feature","properties":{"title":"1832 - Newspaper cutting regarding the pitmen's dispute. The clipping mentions the collieries which have been left \"unworked\" due to the dispute, including Springwell colliery"},"geometry":{"type":"Point","coordinates":[-1.5611038,54.910177]}},{"@id":"https://thecommonroom.org.uk/collection/newspaper-cuttings-re-the-pitmens-dispute-16492/page-425-27322/","type":"Feature","properties":{"title":"1832 - Newspaper cutting regarding the pitmen's dispute. The clipping mentions the collieries which have been left \"unworked\" due to the dispute, including Team colliery"},"geometry":{"type":"Point","coordinates":[1.591741,54.917527]}},{"@id":"https://thecommonroom.org.uk/collection/newspaper-cuttings-re-the-pitmens-dispute-16492/page-425-27322/","type":"Feature","properties":{"title":"1832 - Newspaper cutting regarding the pitmen's dispute. The clipping mentions the collieries which have been left \"unworked\" due to the dispute, including Townley Colliery where pitmen were set to be removed from their homes in the coming days"},"geometry":{"type":"Point","coordinates":[-1.7765979,54.969516]}},{"@id":"https://thecommonroom.org.uk/collection/newspaper-cuttings-re-the-pitmens-dispute-16492/page-425-27322/","type":"Feature","properties":{"title":"1832 - Newspaper cutting regarding the pitmen's dispute. The clipping mentions the collieries which have been left \"unworked\" due to the dispute, including Tyne Main Colliery."},"geometry":{"type":"Point","coordinates":[-1.572941,54.962356]}},{"@id":"https://thecommonroom.org.uk/collection/newspaper-cuttings-re-the-pitmens-dispute-16492/page-425-27322/","type":"Feature","properties":{"title":"1832 - Newspaper cutting regarding the pitmen's dispute. The clipping mentions the collieries which have been left \"unworked\" due to the dispute, including Woodside Colliery in Etherley"},"geometry":{"type":"Point","coordinates":[-1.7241631,54.653579]}},{"@id":"https://thecommonroom.org.uk/collection/newspaper-cuttings-re-the-pitmens-dispute-16492/page-425-27322/","type":"Feature","properties":{"title":"1832 - Newspaper cutting regarding the pitmen's dispute. The clipping mentions the collieries which have been left \"unworked\" due to the dispute, including Usworth"},"geometry":{"type":"Point","coordinates":[-1.5099497,54.91868]}},{"@id":"https://thecommonroom.org.uk/collection/newspaper-cuttings-re-the-pitmens-dispute-16492/page-425-27322/","type":"Feature","properties":{"title":"1832 - Newspaper cutting regarding the pitmen's dispute. The clipping mentions the collieries which have been left \"unworked\" due to the dispute, including Wideopen COlliery"},"geometry":{"type":"Point","coordinates":[-1.6180129,55.0459]}},{"@id":"https://thecommonroom.org.uk/collection/newspaper-cuttings-re-the-pitmens-dispute-16492/page-425-27322/","type":"Feature","properties":{"title":"1832 - Newspaper cutting regarding the pitmen's dispute. The clipping mentions the collieries which have been left \"unworked\" due to the dispute, including North Hetton Colliery"},"geometry":{"type":"Point","coordinates":[-1.469418,54.809504]}},{"@id":"https://thecommonroom.org.uk/collection/newspaper-cuttings-re-the-pitmens-dispute-16492/page-425-27322/","type":"Feature","properties":{"title":"1832 - Newspaper cutting regarding the pitmen's dispute. The clipping mentions the collieries which have been left \"unworked\" due to the dispute, including Hetton Colliery where pitmen were \"deprived of a good livelihood and comforable homes\""},"geometry":{"type":"Point","coordinates":[-1.4420939,54.816481]}},{"@id":"https://thecommonroom.org.uk/collection/newspaper-cuttings-re-the-pitmens-dispute-16492/page-425-27322/","type":"Feature","properties":{"title":"1832 - Newspaper cutting regarding the pitmen's dispute. The clipping mentions the collieries which have been left \"unworked\" due to the dispute, including Callerton Colliery where pitmen were \"deprived of a good livelihood and comforable homes\""},"geometry":{"type":"Point","coordinates":[-1.746561,55.02146]}},{"@id":"https://thecommonroom.org.uk/collection/newspaper-cuttings-re-the-pitmens-dispute-16492/page-425-27322/","type":"Feature","properties":{"title":"1832 - Newspaper cutting regarding the pitmen's dispute. The clipping mentions the collieries which have been left \"unworked\" due to the dispute, including Jarrow Colliery where pitmen were \"deprived of a good livelihood and comforable homes\""},"geometry":{"type":"Point","coordinates":[-1.4826042,54.982909]}},{"@id":"https://thecommonroom.org.uk/collection/newspaper-cuttings-re-the-pitmens-dispute-16492/page-425-27322/","type":"Feature","properties":{"title":"1832 - Newspaper cutting regarding the pitmen's dispute. The clipping mentions the collieries which have been left \"unworked\" due to the dispute, including Coxlodge Colliery where pitmen were \"deprived of a good livelihood and comforable homes\""},"geometry":{"type":"Point","coordinates":[-1.6251889,55.011469]}},{"@id":"https://thecommonroom.org.uk/collection/newspaper-cuttings-re-the-pitmens-dispute-16492/page-425-27322/","type":"Feature","properties":{"title":"1832 - Newspaper cutting regarding the pitmen's dispute. The clipping mentions the collieries which have been left \"unworked\" due to the dispute, including Gosforth Colliery where pitmen were \"deprived of a good livelihood and comforable homes\""},"geometry":{"type":"Point","coordinates":[-1.6043975,55.007719]}},{"@id":"https://thecommonroom.org.uk/collection/newspaper-cuttings-re-the-pitmens-dispute-16492/page-425-27322/","type":"Feature","properties":{"title":"1832 - Newspaper cutting regarding the pitmen's dispute. The clipping mentions the collieries which have been left \"unworked\" due to the dispute, including Friars' Goose Colliery where pitment were \"deprived of a good livelihood and comforable homes\""},"geometry":{"type":"Point","coordinates":[-1.5863016,54.952025]}},{"@id":"https://thecommonroom.org.uk/collection/newspaper-cuttings-re-the-pitmens-dispute-16492/page-425-27322/","type":"Feature","properties":{"title":"1832 - Newspaper cutting regarding the pitmen's dispute. The clipping mentions the collieries which have been left \"unworked\" due to the dispute, including Shield Row drift"},"geometry":{"type":"Point","coordinates":[-1.6373424,54.821804]}},{"@id":"https://thecommonroom.org.uk/collection/newspaper-cuttings-re-the-pitmens-dispute-16492/page-425-27322/","type":"Feature","properties":{"title":"1832 - Newspaper cutting regarding the pitmen's dispute. The clipping mentions the collieries which have been left \"unworked\" due to the dispute, including Mount Moor Colliery"},"geometry":{"type":"Point","coordinates":[-1.5563055,54.923846]}},{"@id":"https://thecommonroom.org.uk/collection/newspaper-cuttings-re-the-pitmens-dispute-16492/page-425-27322/","type":"Feature","properties":{"title":"1832 - Newspaper cutting regarding the pitmen's dispute. The clipping mentions the collieries which have been left \"unworked\" due to the dispute, including Washington Colliery"},"geometry":{"type":"Point","coordinates":[1.591741,54.917527]}},{"@id":"Page 417 / Handbill entitled To the Public being the case for the Owners of Burdon Main Colliery. (thecommonroom.org.uk)","type":"Feature","properties":{"title":"1832 - Handbill entitled to the Public being the case for the Owners of Burdon Main Colliery. The handbill aimed to highlight the strike taking place at Burdon Main Colliery"},"geometry":{"type":"Point","coordinates":[-1.4497382,54.998132]}},{"@id":"Page 418-419 / Newspaper cuttings re the pitmen's dispute. (thecommonroom.org.uk)","type":"Feature","properties":{"title":"1832 - Newspaper cutting regarding the Pitmen's dispute. The cutting lists the names of colleries with bound employers (those who it was criminal not to work). Backworth Colliery is listed as one of the colleries where pitmen had been bound. "},"geometry":{"type":"Point","coordinates":[-1.5260359,55.040634]}},{"@id":"Page 418-419 / Newspaper cuttings re the pitmen's dispute. (thecommonroom.org.uk)","type":"Feature","properties":{"title":"1832 - Newspaper cutting regarding the Pitmen's dispute. The cutting lists the names of colleries with bound employers (those who it was criminal not to work). Benwell Colliery is listed as one of the colleries where pitmen had been bound. "},"geometry":{"type":"Point","coordinates":[-1.6656692,54.966701]}},{"@id":"Page 418-419 / Newspaper cuttings re the pitmen's dispute. (thecommonroom.org.uk)","type":"Feature","properties":{"title":"1832 - Newspaper cutting regarding the Pitmen's dispute. The cutting lists the names of colleries with bound employers (those who it was criminal not to work). Holywel Colliery is listed as one of the colleries where pitmen had been bound. "},"geometry":{"type":"Point","coordinates":[-1.5145528,55.067601]}},{"@id":"Page 418-419 / Newspaper cuttings re the pitmen's dispute. (thecommonroom.org.uk)","type":"Feature","properties":{"title":"1832 - Newspaper cutting regarding the Pitmen's dispute. The cutting lists the names of colleries with bound employers (those who it was criminal not to work). Percy Main Colliery is listed as one of the colleries where pitmen had been bound. "},"geometry":{"type":"Point","coordinates":[-1.4741032,54.997305]}},{"@id":"Page 418-419 / Newspaper cuttings re the pitmen's dispute. (thecommonroom.org.uk)","type":"Feature","properties":{"title":"1832 - Newspaper cutting regarding the Pitmen's dispute. The cutting lists the names of colleries with bound employers (those who it was criminal not to work). Pontop Colliery is listed as one of the colleries where pitmen had been bound. "},"geometry":{"type":"Point","coordinates":[-1.747836,54.860366]}},{"@id":"Page 418-419 / Newspaper cuttings re the pitmen's dispute. (thecommonroom.org.uk)","type":"Feature","properties":{"title":"1832 - Newspaper cutting regarding the Pitmen's dispute. The cutting lists the names of colleries with bound employers (those who it was criminal not to work). Garesfield Colliery is listed as one of the colleries where pitmen had been bound. "},"geometry":{"type":"Point","coordinates":[-1.7839821,54.932416]}},{"@id":"Page 418-419 / Newspaper cuttings re the pitmen's dispute. (thecommonroom.org.uk)","type":"Feature","properties":{"title":"1832 - Newspaper cutting regarding the Pitmen's dispute. The cutting lists the names of colleries with bound employers (those who it was criminal not to work). Seghill Colliery is listed as one of the colleries where pitmen had been bound. "},"geometry":{"type":"Point","coordinates":[-1.5474347,55.067728]}},{"@id":"Page 418-419 / Newspaper cuttings re the pitmen's dispute. (thecommonroom.org.uk)","type":"Feature","properties":{"title":"1832 - Newspaper cutting regarding the Pitmen's dispute. The cutting lists the names of colleries with bound employers (those who it was criminal not to work). Tanfield Moor Colliery is listed as one of the colleries where pitmen had been bound. "},"geometry":{"type":"Point","coordinates":[-1.6990648,54.891204]}},{"@id":"Page 418-419 / Newspaper cuttings re the pitmen's dispute. (thecommonroom.org.uk)","type":"Feature","properties":{"title":"1832 - Newspaper cutting regarding the Pitmen's dispute. The cutting lists the names of colleries with bound employers (those who it was criminal not to work). Walker Colliery is listed as one of the colleries where pitmen had been bound. "},"geometry":{"type":"Point","coordinates":[-1.5427555,54.96985]}},{"@id":"Page 418-419 / Newspaper cuttings re the pitmen's dispute. (thecommonroom.org.uk)","type":"Feature","properties":{"title":"1832 - Newspaper cutting regarding the Pitmen's dispute. The cutting lists the names of colleries with bound employers (those who it was criminal not to work). Walbottle Colliery is listed as one of the colleries where pitmen had been bound. "},"geometry":{"type":"Point","coordinates":[-1.7383515,54.989928]}},{"@id":"Page 418-419 / Newspaper cuttings re the pitmen's dispute. (thecommonroom.org.uk)","type":"Feature","properties":{"title":"1832 - Newspaper cutting regarding the Pitmen's dispute. The cutting lists the names of colleries with bound employers (those who it was criminal not to work). Wallsend Colliery is listed as one of the colleries where pitmen had been bound. "},"geometry":{"type":"Point","coordinates":[-1.5171472,54.991193]}},{"@id":"Page 418-419 / Newspaper cuttings re the pitmen's dispute. (thecommonroom.org.uk)","type":"Feature","properties":{"title":"1832 - Newspaper cutting regarding the Pitmen's dispute. The cutting lists the names of colleries with bound employers (those who it was criminal not to work). Willington Colliery is listed as one of the colleries where pitmen had been bound. "},"geometry":{"type":"Point","coordinates":[-1.6919675,54.701292]}},{"@id":"Page 418-419 / Newspaper cuttings re the pitmen's dispute. (thecommonroom.org.uk)","type":"Feature","properties":{"title":"1832 - Newspaper cutting regarding the Pitmen's dispute. The cutting lists the names of colleries with bound employers (those who it was criminal not to work). Willington Colliery is listed as one of the colleries where lead miners had been bound. "},"geometry":{"type":"Point","coordinates":[-1.5315941,55.119509]}},{"@id":"Page 418-419 / Newspaper cuttings re the pitmen's dispute. (thecommonroom.org.uk)","type":"Feature","properties":{"title":"1832 - Newspaper cutting regarding the Pitmen's dispute. The cutting lists the names of colleries with bound employers (those who it was criminal not to work). Wylam Colliery is listed as one of the colleries where pitmen had been bound. "},"geometry":{"type":"Point","coordinates":[-1.8265635,54.9740905]}},{"@id":"Page 418-419 / Newspaper cuttings re the pitmen's dispute. (thecommonroom.org.uk)","type":"Feature","properties":{"title":"1832 - Newspaper cutting regarding the Pitmen's dispute. The cutting lists the names of colleries with bound employers (those who it was criminal not to work). Callerton Colliery is listed as one of the colleries where lead miners had been bound. "},"geometry":{"type":"Point","coordinates":[-1.746561,55.02146]}},{"@id":"Page 418-419 / Newspaper cuttings re the pitmen's dispute. (thecommonroom.org.uk)","type":"Feature","properties":{"title":"1832 - Newspaper cutting regarding the Pitmen's dispute. The cutting lists the names of colleries with bound employers (those who it was criminal not to work). Coxlodge Colliery is listed as one of the colleries where lead miners had been bound. "},"geometry":{"type":"Point","coordinates":[-1.6251889,55.011469]}},{"@id":"Page 418-419 / Newspaper cuttings re the pitmen's dispute. (thecommonroom.org.uk)","type":"Feature","properties":{"title":"1832 - Newspaper cutting regarding the Pitmen's dispute. The cutting lists the names of colleries with bound employers (those who it was criminal not to work). Gosforth Colliery is listed as one of the colleries where lead miners had been bound. "},"geometry":{"type":"Point","coordinates":[-1.6043975,55.007719]}},{"@id":"Page 418-419 / Newspaper cuttings re the pitmen's dispute. (thecommonroom.org.uk)","type":"Feature","properties":{"title":"1832 - Newspaper cutting regarding the Pitmen's dispute. The cutting lists the names of colleries with bound employers (those who it was criminal not to work). Waldidge Colliery is listed as one of the colleries where lead miners had been bound. "},"geometry":{"type":"Point","coordinates":[-1.610556,54.840278]}},{"@id":"Page 418-419 / Newspaper cuttings re the pitmen's dispute. (thecommonroom.org.uk)","type":"Feature","properties":{"title":"1832 - Newspaper cutting regarding the Pitmen's dispute. The cutting lists the names of colleries with bound employers (those who it was criminal not to work) Fat field Colliery is listed as one of the colleries where pitmen had been bound. "},"geometry":{"type":"Point","coordinates":[-1.5230227,54.881762]}},{"@id":"Page 418-419 / Newspaper cuttings re the pitmen's dispute. (thecommonroom.org.uk)","type":"Feature","properties":{"title":"1832 - A newspaper cutting regarding the Pitmen's dispute. The cutting reports on a general meeting of pitmen at Black Fell"},"geometry":{"type":"Point","coordinates":[-1.5663273,54.913233]}},{"@id":"Page 418-419 / Newspaper cuttings re the pitmen's dispute. (thecommonroom.org.uk)","type":"Feature","properties":{"title":"1832 - Newspaper cutting regarding the Pitmen's dispute. The cutting lists the names of colleries with bound employers (those who it was criminal not to work). Heaton Colliery is listed as one of the colleries where pitmen had been bound. "},"geometry":{"type":"Point","coordinates":[-1.5883318,54.98866]}},{"@id":"Page 415 / Handbill entitled Pitman Shot being a letter to the Tyne Mercury by \"An Eye Witness\". (thecommonroom.org.uk)","type":"Feature","properties":{"title":"1832 - Handbill entitled Pitmen shot. The account came from a supposed \"eye witness\" to the murder where a pitmen was shot by a policeman"},"geometry":{"type":"Point","coordinates":[-1.4497382,54.998132]}},{"@id":"Page 413 / Handbill entitled To the Public from the Late Pitmen of Gateshead Park. (thecommonroom.org.uk)","type":"Feature","properties":{"title":"1832 - A hanbill entitled To the public from the late pitmen of Gateshead Park Colliery where they outline the lack of pay they recieve "},"geometry":{"type":"Point","coordinates":[-1.6551477,54.933152]}},{"@id":"https://thecommonroom.org.uk/collection/handbill-giving-an-account-of-disturbances-at-friars-goose-colliery-16477/page-409-27307/","type":"Feature","properties":{"title":"1832 - Handbill giving an account of disturbance at Friar's Goose Colliery"},"geometry":{"type":"Point","coordinates":[-1.5863016,54.952025]}},{"@id":"https://w3id.org/Final%20copy%202nd%20%20-%20Sheet1%20(1)/20acf0e3-c973-4c7e-befc-f99085e926ba","type":"Feature","properties":{"title":"1832 - Handbill giving an account of disturbance at Friar's Goose Colliery. A similar disturbance in Felling is also mentioned on the handbill"},"geometry":{"type":"Point","coordinates":[-1.5721357,54.955364]}},{"@id":"Page 408 / Handbill entitled Address from the North Hetton Pitmen to the Public. (thecommonroom.org.uk)","type":"Feature","properties":{"title":"1832 - Handbill entitled address from the North Hetton Pitmen to the Public in response to what they consider endeavors of the coal owners to create bad will from the public towards them"},"geometry":{"type":"Point","coordinates":[-1.469418,54.809504]}},{"@id":"https://thecommonroom.org.uk/collection/handbill-advertising-for-pitmen-for-st-lawrence-colliery-16475/page-407-27305/","type":"Feature","properties":{"title":"1832 - Handbill advertising for pitmen to work at St Lawrences Colliery especially those in the role of Putters and Coal Hewers"},"geometry":{"type":"Point","coordinates":[-1.5818615,54.970638]}},{"@id":"https://thecommonroom.org.uk/collection/newspaper-cuttings-re-the-pitmens-dispute-16441/page-340-27271/","type":"Feature","properties":{"title":"1831 - Newspaper cutting regarding Court Cases which had taken place at Moot Hall including some in reference to the Pitmen's dispute"},"geometry":{"type":"Point","coordinates":[-1.60932,54.9688]}},{"@id":"https://thecommonroom.org.uk/collection/newspaper-cuttings-re-the-pitmens-dispute-16441/page-340-27271/","type":"Feature","properties":{"title":"1831 - Newspaper cutting regarding Court Cases which had taken place at Moot Hall including some in reference to the Pitmen's dispute. One case regarded Broomhill Colliery and two bound Pitmen who were put in prison due ot their refusal to work"},"geometry":{"type":"Point","coordinates":[-1.6124974,55.302485]}},{"@id":"https://thecommonroom.org.uk/collection/newspaper-cuttings-re-the-pitmens-dispute-16441/page-340-27271/","type":"Feature","properties":{"title":"1831 - Newspaper cutting regarding Court Cases which had taken place at Moot Hall including some in reference to the Pitmen's dispute. One case regarded the riot at Callerton Colliery. The newspaper also reports on the ongoing dispute in Callerton, reporting no terms had been made with the men"},"geometry":{"type":"Point","coordinates":[-1.746561,55.02146]}},{"@id":"https://thecommonroom.org.uk/collection/newspaper-cuttings-re-the-pitmens-dispute-16441/page-340-27271/","type":"Feature","properties":{"title":"1831 - Newspaper cutting regarding the destruction of ropes on the Wagonway at Benwell Colliery. A reward of 200 Guineas was offered for those who had information. It also reports that the Pitmen's dispute continued at Benwell, despite the fact that pitmen were bound to work their. "},"geometry":{"type":"Point","coordinates":[-1.6656692,54.966701]}},{"@id":"https://thecommonroom.org.uk/collection/newspaper-cutting-re-rewards-for-information-on-assaults-by-pitmen-at-walker-and-bigges-main-16448/page-365-27278/","type":"Feature","properties":{"title":"Date unkown - Newspaper cutting regarding an reward for information regarding an assult by pitmen. One assault took place at Walker Colliery were a Pitmen Richard Athey was assault. The ward for information was 20 Gunieas"},"geometry":{"type":"Point","coordinates":[-1.5427555,54.96985]}},{"@id":"https://thecommonroom.org.uk/collection/newspaper-cutting-re-rewards-for-information-on-assaults-by-pitmen-at-walker-and-bigges-main-16448/page-365-27278/","type":"Feature","properties":{"title":"Date unkown - Newspaper cutting regarding an reward for information regarding an assult by pitmen. One assault took place at Bigg's Main Colliery where the wife of William Wilson was \"brutaly ill-treat\". The ward for information was 20 Gunieas"},"geometry":{"type":"Point","coordinates":[-1.5532479,54.997028]}},{"@id":"https://thecommonroom.org.uk/collection/handbill-advertising-coal-from-berwick-sold-in-newcastle-16412/page-279-27242/","type":"Feature","properties":{"title":"1831 - A handbill advertising coal from Berwick being sold in Newcaslte during the Pitmen's Strike in Newcastle"},"geometry":{"type":"Point","coordinates":[-2.0127165,55.743382]}},{"@id":"https://thecommonroom.org.uk/collection/newspaper-cuttings-re-the-coal-trade-16109/page-495-26938/","type":"Feature","properties":{"title":"1838 - Newspaper cutting regarding goings on in the coal trade including Tees Coal Trade Anniversary dinner. It also records coal production at colleries including that of Penshaw Colliery"},"geometry":{"type":"Point","coordinates":[-1.5028513,54.874348]}},