{"@id":"https://w3id.org/Final%20copy%20-%20Sheet1","type":"FeatureCollection","@context":"https://w3id.org/locolligo/contexts/linkedplaces.jsonld","features":[{"@id":"https://w3id.org/Final%20copy%20-%20Sheet1/2343f86a-0d4f-44d7-99de-0946d4336d65","type":"Feature","properties":{"title":"1974 - Westoe Colliery, Ranging arm machinery along with a Miner observing it","url":"Page 4 / Westoe, Colliery, Ranging arm shearer, Underground, machinery, people (thecommonroom.org.uk)"},"geometry":{"type":"Point","coordinates":[-1.416958,54.994924]}},{"@id":"https://w3id.org/Final%20copy%20-%20Sheet1/48ff86ca-7519-4097-a547-e00a9d076770","type":"Feature","properties":{"title":"1830 - Engraving of fossil tree at Cresswell","url":"Page 161 / Engravings of fossil tree at Cresswell. (thecommonroom.org.uk)"},"geometry":{"type":"Point","coordinates":[-1.54025,55.23567]}},{"@id":"https://w3id.org/Final%20copy%20-%20Sheet1/d51c9424-0346-4e58-b100-cb578d9f5675","type":"Feature","properties":{"title":"1887 - Under the Coal Tyne by John Hodgson Campbell based on his visits to Redheugh Colliery ","url":"folder / Under the Coaly Tyne (Painting) (thecommonroom.org.uk)"},"geometry":{"type":"Point","coordinates":[-1.619513,54.957647]}},{"@id":"https://w3id.org/Final%20copy%20-%20Sheet1/d3dcd1b0-8992-4f7d-8d17-46d6bcfc587b","type":"Feature","properties":{"title":"date unkown - 600' Central Mine, Broken Hill, Australia","url":"Page 9 / 600' Central Mine, Broken Hill H.F. Bulman (thecommonroom.org.uk)"},"geometry":{"type":"Point","coordinates":[141.45583,-31.97694]}},{"@id":"https://w3id.org/Final%20copy%20-%20Sheet1/65883f84-ba48-4995-a6fc-d82b838edf59","type":"Feature","properties":{"title":"Date unkown - Library of Parliament, Ottowa, Canada","url":"Page 40 / Library of Parliament, Ottawa, Canada (thecommonroom.org.uk)"},"geometry":{"type":"Point","coordinates":[-75.700233,45.425507]}},{"@id":"https://w3id.org/Final%20copy%20-%20Sheet1/9c6788cf-6954-4764-bcfa-864a35449193","type":"Feature","properties":{"title":"Date unkown -  Westoe Crown Shaft","url":"Page 1 / Westoe, Crown shaft (thecommonroom.org.uk)"},"geometry":{"type":"Point","coordinates":[-1.416958,54.994924]}},{"@id":"https://w3id.org/Final%20copy%20-%20Sheet1/9902dabe-096e-4477-b920-aea4898c8b63","type":"Feature","properties":{"title":"1974 - Acklington R.A.F Station ","url":"Page 50 / Opencast, Acklington RAF station (thecommonroom.org.uk)"},"geometry":{"type":"Point","coordinates":[-1.641666667,55.3]}},{"@id":"https://w3id.org/Final%20copy%20-%20Sheet1/dcb42237-8ade-4183-9baf-be3ffa849771","type":"Feature","properties":{"title":"1980 - Blyth Harbour ","url":"Page 48 / Blyth harbour, vertical aerial view (thecommonroom.org.uk)"},"geometry":{"type":"Point","coordinates":[-1.50273233,55.13069916]}},{"@id":"https://w3id.org/Final%20copy%20-%20Sheet1/a58fe0ac-f7ca-4ff9-ba67-603b9ff65509","type":"Feature","properties":{"title":"Date unkown - Quincy No. 2 Shaft, Rookhouse","url":"Page 13 / Quincy No.2 shaft, Rookhouse, Photo by Islar (?) (thecommonroom.org.uk)"},"geometry":{"type":"Point","coordinates":[-88.5731,47.1357]}},{"@id":"https://w3id.org/Final%20copy%20-%20Sheet1/c8e94c9e-0602-4adb-a12e-84dcbdeb991d","type":"Feature","properties":{"title":"1980 - Seaham by air","url":"Page 38 / Seaham, vertical aerial photo (thecommonroom.org.uk)"},"geometry":{"type":"Point","coordinates":[-1.325521,54.83615]}},{"@id":"https://w3id.org/Final%20copy%20-%20Sheet1/ea049c24-81b7-42cf-b0db-f762cb1a219a","type":"Feature","properties":{"title":"Date Unkown - Miner standing underground in Ellington Colliery ","url":"Page 35 / Ellington colliery, underground (thecommonroom.org.uk)"},"geometry":{"type":"Point","coordinates":[-1.5562069,55.219717]}},{"@id":"https://w3id.org/Final%20copy%20-%20Sheet1/405f4ba9-26fb-4833-9ebf-22d034ccc6ba","type":"Feature","properties":{"title":"Date unkown - Miner working with equipment in Ellington Colliery","url":"Page 32 / Ellington colliery Northumberland (thecommonroom.org.uk)"},"geometry":{"type":"Point","coordinates":[-1.5562069,55.219717]}},{"@id":"https://w3id.org/Final%20copy%20-%20Sheet1/252e397e-bd70-453b-a78c-fc25c020cebd","type":"Feature","properties":{"title":"Date unkown - Ariel view of Ellington Colliery ","url":"Page 27 / Ellington colliery Northumberland aerial view (thecommonroom.org.uk)"},"geometry":{"type":"Point","coordinates":[-1.5562069,55.218272]}},{"@id":"https://w3id.org/Final%20copy%20-%20Sheet1/a9e6c28e-87dc-49a6-b6e3-6d27727d1977","type":"Feature","properties":{"title":"Date unkown - Jarrow Coal terminal aerial view","url":"https://thecommonroom.org.uk/collection/jarrow-coal-terminal-aerial-view-19259/page-40-25737/"},"geometry":{"type":"Point","coordinates":[-1.4826042,54.982909]}},{"@id":"https://w3id.org/Final%20copy%20-%20Sheet1/dcecbb95-9503-4096-a47b-8611a023ab86","type":"Feature","properties":{"title":"1973 - Man working the underground conveyor system in Dawdon Colliery","url":"https://thecommonroom.org.uk/collection/dawdon-colliery-underground-conveyor-system-19233/page-14-25711/#collection-gallery"},"geometry":{"type":"Point","coordinates":[-1.3229363,54.823154]}},{"@id":"https://w3id.org/Final%20copy%20-%20Sheet1/2da8edb0-621b-4bc4-9250-a1f68917898c","type":"Feature","properties":{"title":"1973 - a dosco Roadheader in Murton Colliery","url":"Page 26 / Murton Colliery DOSCO roadheader, (thecommonroom.org.uk)"},"geometry":null},{"@id":"https://w3id.org/Final%20copy%20-%20Sheet1/d89de3db-d3e6-4763-942c-0fbc05aea655","type":"Feature","properties":{"title":"Date unkown - Photograph of Mount Stephen in British Columbia from Kicking Horse River","url":"Page 32 / 1169, Mt. Stephen from Kicking Horse River, Rockies. Back: photo by Boorne and May, Calgary (thecommonroom.org.uk)"},"geometry":{"type":"Point","coordinates":[-116.436354,51.398938]}},{"@id":"https://w3id.org/Final%20copy%20-%20Sheet1/8088cc25-cc4a-4052-8b4b-1c9b888cb13b","type":"Feature","properties":{"title":"Date Unkown - Mouth of Sundance Canyon in Banff","url":"Page 33 / 1271 Mouth of Sundance Canyon, Banff (thecommonroom.org.uk)"},"geometry":{"type":"Point","coordinates":[-115.615562,51.154094]}},{"@id":"https://w3id.org/Final%20copy%20-%20Sheet1/eb475449-d424-4553-9678-b23663019fb5","type":"Feature","properties":{"title":"Date Unkown - Enclosure at Adelaide Zoo containing a stork","url":"Page 22 / Zoo Adelaide? (thecommonroom.org.uk)"},"geometry":{"type":"Point","coordinates":[138.6058333,-34.91416667]}},{"@id":"https://w3id.org/Final%20copy%20-%20Sheet1/d2a9887c-e31e-4a2b-aeb0-3ee27c37699c","type":"Feature","properties":{"title":"1979 - Ariel View of Hawthorn Colliery ","url":"Page 59 / Hawthorn site vertical aerial view (thecommonroom.org.uk)"},"geometry":{"type":"Point","coordinates":[-1.32309,54.81048]}},{"@id":"https://w3id.org/Final%20copy%20-%20Sheet1/107f4d83-2174-4565-8e07-8b99a30dd083","type":"Feature","properties":{"title":"1974 - Opencast mine in Nackshivan ","url":"Page 52 / Opencast, Nackshivan, Co. Durham, Aerial view (thecommonroom.org.uk)"},"geometry":{"type":"Point","coordinates":[-1.7110282,54.725799]}},{"@id":"https://w3id.org/Final%20copy%20-%20Sheet1/d323bd8a-23a2-434a-a195-fab345eebb45","type":"Feature","properties":{"title":"1974 - Ariel View of an opencast mine on the Ragpath Site","url":"Page 51 / Opencast, Ragpath site Co. Durham, Aerial view (thecommonroom.org.uk)"},"geometry":{"type":"Point","coordinates":[-1.763611111,54.79861111]}},{"@id":"https://w3id.org/Final%20copy%20-%20Sheet1/862e0f8b-41b3-4618-8987-594652c3cc2b","type":"Feature","properties":{"title":"1974 - Dawdon Colliery, rack a track","url":"Page 66 / Dawdon Rack a Track (thecommonroom.org.uk)"},"geometry":{"type":"Point","coordinates":[-1.3229363,54.823154]}},{"@id":"https://w3id.org/Final%20copy%20-%20Sheet1/9a97f112-6edb-440e-a1a8-a80e110afe43","type":"Feature","properties":{"title":"Date unkown - Dawdon tunelling Machine","url":"https://thecommonroom.org.uk/collection/dawdon-tunnelling-machine-19244/page-25-25722/#collection-gallery"},"geometry":{"type":"Point","coordinates":[-1.3229363,54.823154]}},{"@id":"https://w3id.org/Final%20copy%20-%20Sheet1/db6ac1cf-2220-4595-b16f-4cfe434cfa18","type":"Feature","properties":{"title":"Date unkown - Arieal view of the River Wear as it goes through Sunderland ","url":"Page 49 / River Wear, Sunderland, aerial view (thecommonroom.org.uk)"},"geometry":{"type":"Point","coordinates":[-1.373123,54.910481]}},{"@id":"https://w3id.org/Final%20copy%20-%20Sheet1/26956476-0c32-4e11-970a-f3ee22a587dd","type":"Feature","properties":{"title":"Date unkown - Conveyer delivering spoil to beaches in Dawdon Beach","url":"Page 8 / Conveyer delivering spoil to beach, bulldozers (thecommonroom.org.uk)"},"geometry":{"type":"Point","coordinates":[-1.3214295,54.824093]}},{"@id":"https://w3id.org/Final%20copy%20-%20Sheet1/ed5d0813-f667-4868-994a-90d167fcb8f9","type":"Feature","properties":{"title":"1830 - Plan and Section of the Gilmerton Coalfield showing coal seams ","url":"Page 407 / Plan and section of the Gilmerton Coalfield (thecommonroom.org.uk)"},"geometry":{"type":"Point","coordinates":[-3.1274482,55.899949]}},{"@id":"https://w3id.org/Final%20copy%20-%20Sheet1/47f9e605-4a92-44d3-b5d2-4f856981c794","type":"Feature","properties":{"title":"1901 - Painting of George Baker Foster by H. Von Herkomer. Foster lived in Farnley Hill Corbridge during his life and was President of the North of England Mining Institute and Mechanical Engineers","url":"folder / George Baker Forster (painting) (thecommonroom.org.uk)"},"geometry":{"type":"Point","coordinates":[-2.005788,54.961262]}},{"@id":"https://w3id.org/Final%20copy%20-%20Sheet1/95e367c7-8dde-4bdf-8e62-ba84bd3d30b7","type":"Feature","properties":{"title":"Date unkown - Painting of William Cuthbert Blacket by unkown artists. Blackett, who attended Durham University lived in South Bailey and was President of the North of England Mining Institute and Mechanical Engineers","url":"folder / William C. Blackett (Painting) (thecommonroom.org.uk)"},"geometry":{"type":"Point","coordinates":[-1.575314,54.772087]}},{"@id":"https://w3id.org/Final%20copy%20-%20Sheet1/ef8b8bef-6aac-49d5-9ce2-1cf1f877ee80","type":"Feature","properties":{"title":"Date Unkown - Painting of George Stephenson by unkown artist. Stephenson is considered the \"Father of Railways\" with the \"Stephenson gauge\" still used as the standard for most of the world's railways","url":"https://thecommonroom.org.uk/collection/george-stephenson-painting-15565/folder-22036/"},"geometry":{"type":"Point","coordinates":[-1.5718211,55.027558]}},{"@id":"https://w3id.org/Final%20copy%20-%20Sheet1/65d94044-661a-4cfc-9d55-284d56d73e09","type":"Feature","properties":{"title":"Date Unkown - Painting of John Bubble by an unkown artist. Bubble had a major influence on the development of Northen Coalfield and their saftey. Though working in many coalmines he started off his career working in Walllsend Colliery and died in Wallsend in 1843","url":"folder / John Buddle (Painting) (thecommonroom.org.uk)"},"geometry":{"type":"Point","coordinates":[-1.5170374,54.991228]}},{"@id":"https://w3id.org/Final%20copy%20-%20Sheet1/faadaa9c-62b1-4dab-bda4-f73df6135f2c","type":"Feature","properties":{"title":"Date unkown - Whaleback Ore Ships on Lake Huron","url":"Page 2 / Lake Huron, Whalebacks [Ore ships] (thecommonroom.org.uk)"},"geometry":{"type":"Point","coordinates":[-82.4,44.79999983]}},{"@id":"https://w3id.org/Final%20copy%20-%20Sheet1/64479b3b-a626-47c9-a114-0c4eaa5946ef","type":"Feature","properties":{"title":"Date unkown - Slocan City in Canada ","url":"Page 4 / Slocan City (thecommonroom.org.uk)"},"geometry":{"type":"Point","coordinates":[-117.470909,49.766079]}},{"@id":"https://w3id.org/Final%20copy%20-%20Sheet1/e5d06d41-fae7-4f33-9bf2-05e195810d17","type":"Feature","properties":{"title":"Date Unkown - A picture of the Niagra Falls in the USA","url":"Page 44 / Niagara Falls, USA (thecommonroom.org.uk)"},"geometry":{"type":"Point","coordinates":[-79.07411377,43.08262805]}},{"@id":"https://w3id.org/Final%20copy%20-%20Sheet1/e554d196-2367-4a9d-b05e-5df9fa4fbefc","type":"Feature","properties":{"title":"Date unkown - A picture of Broken Hills Australia where mining took place","url":"Page 3 / Vignette for head pieces, 3325, H. F. Bulman (thecommonroom.org.uk)"},"geometry":{"type":"Point","coordinates":[141.45583,-31.97694]}},{"@id":"https://w3id.org/Final%20copy%20-%20Sheet1/ee949000-829e-4f3f-a953-7677c2f2fc4a","type":"Feature","properties":{"title":"Date Unkown - Calumet Michigan, two men standing in front of a Calumet and Helcla Drift","url":"Page 18 / Front: Underground, Calumet and Hecla Drift 604. Back: view of face of drift in the copper bearing bed at Calumet and Hecla H. F.Bulman (thecommonroom.org.uk)"},"geometry":{"type":"Point","coordinates":[-105.94785,38.63737]}},{"@id":"https://w3id.org/Final%20copy%20-%20Sheet1/ec622d29-17ef-47cf-be44-2c7e33fe8c6c","type":"Feature","properties":{"title":"Date unkown - Quincy Stamp Mill","url":"Page 17 / Quincy Stamp Mill, photo by ??? (thecommonroom.org.uk)"},"geometry":{"type":"Point","coordinates":[-8.460216,47.146736]}},{"@id":"https://w3id.org/Final%20copy%20-%20Sheet1/7433bbf1-af22-4f94-9b81-f6863ebfc7b6","type":"Feature","properties":{"title":"Date unkown - Bow River Rapids in Canada. In the background a Canadian Pacific Railway (CPR) hotel can be seen. The hotel opened in 1888","url":"Page 27 / Bow Rapids and C.P.R Hotel, Banff (thecommonroom.org.uk)"},"geometry":{"type":"Point","coordinates":[-115.561944,51.164444]}},{"@id":"https://w3id.org/Final%20copy%20-%20Sheet1/db4fb475-42be-48bb-b695-2467d48a4481","type":"Feature","properties":{"title":"Date Unkown - University of Toronto Canada","url":"Page 43 / University of Toronto, Canada (thecommonroom.org.uk)"},"geometry":{"type":"Point","coordinates":[-79.396446,43.663497]}},{"@id":"https://w3id.org/Final%20copy%20-%20Sheet1/e11d98e4-27b4-48b3-94cf-cf18cea045a6","type":"Feature","properties":{"title":"Date unkown - Parliament buildings in Toronto Canada","url":"Page 42 / Parliament buildings, Toronto, Canada (thecommonroom.org.uk)"},"geometry":{"type":"Point","coordinates":[-79.39117826,43.66236228]}},{"@id":"https://w3id.org/Final%20copy%20-%20Sheet1/b7506114-0360-4d80-b716-1f5e07192995","type":"Feature","properties":{"title":"Date unkown - Regina","url":"Page 5 / Regina capital of NW Territories (thecommonroom.org.uk)"},"geometry":{"type":"Point","coordinates":[-104.6181946,50.44549292]}},{"@id":"https://w3id.org/Final%20copy%20-%20Sheet1/d8373764-ba38-496a-a0df-10233d488738","type":"Feature","properties":{"title":"Date unkown - Kalguri Australia","url":"Page 30 / Kalgwili hospital (thecommonroom.org.uk)"},"geometry":{"type":"Point","coordinates":[121.470045,-30.740452]}},{"@id":"https://w3id.org/Final%20copy%20-%20Sheet1/992bb206-5e7d-45c6-ad28-997cfb02e6c7","type":"Feature","properties":{"title":"Date unkown - Kalguri in Australia, a miner is seen standing with a mahine with buildings behind him","url":"Page 64 / Dry blower, Kalgurli, H F Bulman (thecommonroom.org.uk)"},"geometry":null},{"@id":"https://w3id.org/Final%20copy%20-%20Sheet1/c45fcecf-1fe1-4f4d-b334-4c3a3c22521a","type":"Feature","properties":{"title":"Date unkown - Port Pirie smelting works with manager of the plant, Mr Robertson, standing outside","url":"Page 66 / Mr. Robertson, manager Smelting Works, Port Pirie (thecommonroom.org.uk)"},"geometry":{"type":"Point","coordinates":[138.0092747,-33.16944318]}},{"@id":"https://w3id.org/Final%20copy%20-%20Sheet1/badbf36b-1e8d-4d27-8513-103216d6a8c1","type":"Feature","properties":{"title":"Date Unkown - Map to accompany the survey of Agriculture in Northumberland by Bailey and Culley","url":"Page 6 / ? Slocan Lake BC (thecommonroom.org.uk)"},"geometry":{"type":"Point","coordinates":[-117.390352,49.938917]}},{"@id":"https://w3id.org/Final%20copy%20-%20Sheet1/6681af44-8492-4474-819c-6c508aa5cd06","type":"Feature","properties":{"title":"Date Unkown - Map to accompany the survey of Agriculture in Northumberland by Bailey and Culley","url":"Page 203 / Map to accompany the survey of agriculture in Northumberland by Bailey and Culley. (thecommonroom.org.uk)"},"geometry":{"type":"Point","coordinates":[-1.687491667,55.16875]}},{"@id":"https://w3id.org/Final%20copy%20-%20Sheet1/4837a766-8137-412b-9dcc-a2483ec308cd","type":"Feature","properties":{"title":"1829 - Article about Colliery explosions from 1805 to 1828 which notes the 1817 explosion at Row Pit at Harraton which killed 38 men. The list comes from an adress given to the Coal Trade Investigation in a Committee of the House of Lords","url":"Page 111 / Article about colliery explosions from 1805 to 1828 (thecommonroom.org.uk)"},"geometry":{"type":"Point","coordinates":[-1.5433469,54.876305]}},{"@id":"https://w3id.org/Final%20copy%20-%20Sheet1/e92220cd-9f2a-49e1-ac18-e817f525f77b","type":"Feature","properties":{"title":"1829 - Article about Colliery explosions from 1805 to 1828 which notes the 1805, 1814 and 1825 explosion at Hebburn Colliery which killed 35,11 and 4 men respectively. The list comes from an adress given to the Coal Trade Investigation in a Committee of the House of Lords","url":"Page 111 / Article about colliery explosions from 1805 to 1828 (thecommonroom.org.uk)"},"geometry":{"type":"Point","coordinates":[-1.5102967,54.98262]}},{"@id":"https://w3id.org/Final%20copy%20-%20Sheet1/564c1cd4-0e57-4823-8f8b-e4941f5a1077","type":"Feature","properties":{"title":"1829 - Article about Colliery explosions from 1805 to 1828 which notes the 1812, 1813 and 1821 explosion at Felling Colliery which killed 92,22 and 52 men respectively. The list comes from an adress given to the Coal Trade Investigation in a Committee of the House of Lords","url":"Page 111 / Article about colliery explosions from 1805 to 1828 (thecommonroom.org.uk)"},"geometry":{"type":"Point","coordinates":[-1.5721357,54.955364]}},{"@id":"https://w3id.org/Final%20copy%20-%20Sheet1/27995e2c-0a51-4a0e-b0e2-c58ad934e61b","type":"Feature","properties":{"title":"1829 - Article about Colliery explosions from 1805 to 1828 which notes the 1812 explosion at Row Pit at Herrington Mill Pit which killed 23 men. The list comes from an adress given to the Coal Trade Investigation in a Committee of the House of Lords","url":"Page 111 / Article about colliery explosions from 1805 to 1828 (thecommonroom.org.uk)"},"geometry":{"type":"Point","coordinates":[-1.4902454,54.86806]}},{"@id":"https://w3id.org/Final%20copy%20-%20Sheet1/4e630cfb-431a-4681-b9fb-6af6bd8a319d","type":"Feature","properties":{"title":"1829 - Article about Colliery explosions from 1805 to 1828 which notes the 1813 explosion at Hall Pit in Fatfield which killed 30 men. The list comes from an adress given to the Coal Trade Investigation in a Committee of the House of Lords","url":"Page 111 / Article about colliery explosions from 1805 to 1828 (thecommonroom.org.uk)"},"geometry":{"type":"Point","coordinates":[-1.5504804,54.885093]}},{"@id":"https://w3id.org/Final%20copy%20-%20Sheet1/4e2ded29-0c2b-4a2f-9213-499db7aa3771","type":"Feature","properties":{"title":"1829 - Article about Colliery explosions from 1805 to 1828 which notes the 1815 explosion at Sucess Pit in Newbottle which killed 57 men. The list comes from an adress given to the Coal Trade Investigation in a Committee of the House of Lords","url":"Page 111 / Article about colliery explosions from 1805 to 1828 (thecommonroom.org.uk)"},"geometry":{"type":"Point","coordinates":[-1.491669,54.860175]}},{"@id":"https://w3id.org/Final%20copy%20-%20Sheet1/5885d515-b530-419f-85ae-e3019243d51a","type":"Feature","properties":{"title":"1829 - Article about Colliery explosions from 1805 to 1828 which notes the 1815 and 1819 explosion at Sheriff Hill which killed 11and 35 men respectively. The list comes from an adress given to the Coal Trade Investigation in a Committee of the House of Lords","url":"Page 111 / Article about colliery explosions from 1805 to 1828 (thecommonroom.org.uk)"},"geometry":{"type":"Point","coordinates":[-1.6006493,54.933246]}},{"@id":"https://w3id.org/Final%20copy%20-%20Sheet1/aa8ea529-e0f2-49cd-b07f-9631ae09a69d","type":"Feature","properties":{"title":"1829 - Article about Colliery explosions from 1805 to 1828 which notes the 1817, 1826 and 1828 explosion at the Jarrow Colliery which killed 6, 34 and 8 men respectively. The list comes from an adress given to the Coal Trade Investigation in a Committee of the House of Lords","url":"Page 111 / Article about colliery explosions from 1805 to 1828 (thecommonroom.org.uk)"},"geometry":{"type":"Point","coordinates":[-1.4826042,54.982909]}},{"@id":"https://w3id.org/Final%20copy%20-%20Sheet1/49e1e6a6-10e8-4f4c-a910-dd4ee39511c0","type":"Feature","properties":{"title":"1829 - Article about Colliery explosions from 1805 to 1828 which notes the 1817 and 1823 explosion at Plain Pit in Rainton which killed 26 and 57 men respectively. The list comes from an adress given to the Coal Trade Investigation in a Committee of the House of Lords","url":"Page 111 / Article about colliery explosions from 1805 to 1828 (thecommonroom.org.uk)"},"geometry":null},{"@id":"https://w3id.org/Final%20copy%20-%20Sheet1/6af48ff0-eb5a-43e5-8f5d-545752ce7e3d","type":"Feature","properties":{"title":"1829 - Article about Colliery explosions from 1805 to 1828 which notes the 1818 and 1821 explosion at Wallsend Colliery which killed 4 and 52 men respectively. The list comes from an adress given to the Coal Trade Investigation in a Committee of the House of Lords","url":"Page 111 / Article about colliery explosions from 1805 to 1828 (thecommonroom.org.uk)"},"geometry":{"type":"Point","coordinates":[-1.5337258,54.987474]}},{"@id":"https://w3id.org/Final%20copy%20-%20Sheet1/befb7256-58bb-4cb6-b945-3531cbbb3482","type":"Feature","properties":{"title":"1829 - Handbill summarising evidence given to the House of Lords regarding the Coal trade, including questions about Wallsend Colliery","url":"Page 113 / Handbill entitled Great News for Pitmen including a New Song (thecommonroom.org.uk)"},"geometry":{"type":"Point","coordinates":[-1.5337258,54.987474]}},{"@id":"https://w3id.org/Final%20copy%20-%20Sheet1/10bf4a9d-b729-4144-bcea-8375aca2662c","type":"Feature","properties":{"title":"1830 - A pamphlet entitled Proceedings at Law in the Case of King V Rusell and others relative to Coal Staithes erected at Wallsend on the River Tyne","url":"Page 215-222 / Proceedings re Coal Staithes at Wallsend (thecommonroom.org.uk)"},"geometry":{"type":"Point","coordinates":[-1.5337258,54.987474]}},{"@id":"https://w3id.org/Final%20copy%20-%20Sheet1/3a48afe5-1010-4aba-afab-e51e58d9059b","type":"Feature","properties":{"title":"1831 - Newspaper cutting relating to a general meeting of coal owners, ship owners, merchants and others which resolved to petition both houses of Parliament for the abolition of the duty on coals exported","url":"Page 235-238 / Coal duties (thecommonroom.org.uk)"},"geometry":{"type":"Point","coordinates":[-1.60767,54.96842]}},{"@id":"https://w3id.org/Final%20copy%20-%20Sheet1/71283f53-e774-4304-b941-21eb59912687","type":"Feature","properties":{"title":"1829 - Article about Colliery explosions from 1805 to 1828 which notes the 1819 and 1823 explosion at George Pit in the Lumley Colliery which killed 13 and 14 men respectively. The list comes from an adress given to the Coal Trade Investigation in a Committee of the House of Lords","url":"Page 111 / Article about colliery explosions from 1805 to 1828 (thecommonroom.org.uk)"},"geometry":{"type":"Point","coordinates":[-1.5322246,54.921644]}},{"@id":"https://w3id.org/Final%20copy%20-%20Sheet1/19db7d4d-4a3f-450c-8fb2-658a5857c24d","type":"Feature","properties":{"title":"1829 - Article about Colliery explosions from 1805 to 1828 which notes the 1821 explosion at Coxlodge Pit which killed one man. The list comes from an adress given to the Coal Trade Investigation in a Committee of the House of Lord","url":"Page 111 / Article about colliery explosions from 1805 to 1828 (thecommonroom.org.uk)"},"geometry":{"type":"Point","coordinates":[-1.6251889,55.011469]}},{"@id":"https://w3id.org/Final%20copy%20-%20Sheet1/2c842a9e-420a-493c-a324-05f0c72f1c59","type":"Feature","properties":{"title":"1829 - Article about Colliery explosions from 1805 to 1828 which notes the 1823 explosion at Ouston Colliery in Chester-lee-street which killed 4 men. The list comes from an adress given to the Coal Trade Investigation in a Committee of the House of Lord","url":"Page 111 / Article about colliery explosions from 1805 to 1828 (thecommonroom.org.uk)"},"geometry":{"type":"Point","coordinates":[-1.5898523,54.877711]}},{"@id":"https://w3id.org/Final%20copy%20-%20Sheet1/7b9b787d-97bc-497a-b785-5eca53c36da5","type":"Feature","properties":{"title":"1829 - Article about Colliery explosions from 1805 to 1828 which notes the 1823 explosion at Neasham's Dolly Pit in Shiftree which killed 11 men. The list comes from an adress given to the Coal Trade Investigation in a Committee of the House of Lord","url":"Page 111 / Article about colliery explosions from 1805 to 1828 (thecommonroom.org.uk)"},"geometry":{"type":"Point","coordinates":[-1.8033666,54.540275]}},{"@id":"https://w3id.org/Final%20copy%20-%20Sheet1/1101b21e-7892-4619-88d5-a2c7e7bba67f","type":"Feature","properties":{"title":"1829 - Article about Colliery explosions from 1805 to 1828 which notes the 1825 explosion at Juliet Pit in Fatfield which killed 11 men. The list comes from an adress given to the Coal Trade Investigation in a Committee of the House of Lord","url":"Page 111 / Article about colliery explosions from 1805 to 1828 (thecommonroom.org.uk)"},"geometry":{"type":"Point","coordinates":[-1.5230227,54.881762]}},{"@id":"https://w3id.org/Final%20copy%20-%20Sheet1/015fbac7-8c52-4d9f-9c33-2539677c1c1a","type":"Feature","properties":{"title":"1829 - Article about Colliery explosions from 1805 to 1828 which notes the 1826 explosion at Townly Pit which killed 38 men. The list comes from an adress given to the Coal Trade Investigation in a Committee of the House of Lord","url":"Page 111 / Article about colliery explosions from 1805 to 1828 (thecommonroom.org.uk)"},"geometry":{"type":"Point","coordinates":[-1.7765979,54.969516]}},{"@id":"https://w3id.org/Final%20copy%20-%20Sheet1/12309de4-80a1-4947-a25d-9f3a0a96ca16","type":"Feature","properties":{"title":"1829 - Article about Colliery explosions from 1805 to 1828 which notes the 1826 explosion at Heworth Colliery which killed 4 men. The list comes from an adress given to the Coal Trade Investigation in a Committee of the House of Lord","url":"Page 111 / Article about colliery explosions from 1805 to 1828 (thecommonroom.org.uk)"},"geometry":{"type":"Point","coordinates":[-1.5598136,54.938371]}},{"@id":"https://w3id.org/Final%20copy%20-%20Sheet1/9e0dd0d6-0319-4003-bfa5-227c8805557a","type":"Feature","properties":{"title":"1829 - Article about Colliery explosions from 1805 to 1828 which notes the 1826 explosion at Benwell Colliery which killed 2 men. The list comes from an adress given to the Coal Trade Investigation in a Committee of the House of Lord","url":"Page 111 / Article about colliery explosions from 1805 to 1828 (thecommonroom.org.uk)"},"geometry":{"type":"Point","coordinates":[-1.6656692,54.966701]}},{"@id":"https://w3id.org/Final%20copy%20-%20Sheet1/99d9fbe7-73ed-42a6-9c50-9c7468dbf641","type":"Feature","properties":{"title":"1829 - Article about Colliery explosions from 1805 to 1828 which notes the 1828 explosion at New Pit at Houghton-le-Spring which killed 7 men. The list comes from an adress given to the Coal Trade Investigation in a Committee of the House of Lord","url":"Page 111 / Article about colliery explosions from 1805 to 1828 (thecommonroom.org.uk)"},"geometry":{"type":"Point","coordinates":[-1.4741457,54.846819]}},{"@id":"https://w3id.org/Final%20copy%20-%20Sheet1/2d703ba8-d2a4-4a1e-a6a5-8ddcad9d08f9","type":"Feature","properties":{"title":"1829 - Article about Colliery explosions from 1805 to 1828 which notes the 1828 explosion at Washington Colliery which killed 11 men. The list comes from an adress given to the Coal Trade Investigation in a Committee of the House of Lord","url":"Page 111 / Article about colliery explosions from 1805 to 1828 (thecommonroom.org.uk)"},"geometry":{"type":"Point","coordinates":[-1.5298566,54.910626]}},{"@id":"https://w3id.org/Final%20copy%20-%20Sheet1/835ec0b8-46c1-4c0a-92e2-773a058b8fef","type":"Feature","properties":{"title":"1831 - Newspaper cutting regarding the call for the abolition of the duty of coals, nicknamed the Richmond Shilling and the petition that was signed","url":"Page 369 / Coal duties (thecommonroom.org.uk)"},"geometry":{"type":"Point","coordinates":[-1.60767,54.96842]}},{"@id":"https://w3id.org/Final%20copy%20-%20Sheet1/ad65e4e7-a97e-4ba1-af2e-85eb509bd6d5","type":"Feature","properties":{"title":"1834 - List of Collieries on the Tyne and their prices in September 1834, including the prices of Benwell Colliery ","url":"Page 457 / Collieries on the Tyne and coal prices. (thecommonroom.org.uk)"},"geometry":{"type":"Point","coordinates":[-1.6656692,54.966701]}},{"@id":"https://w3id.org/Final%20copy%20-%20Sheet1/c3d52e0b-2565-4ba8-a9ec-a0cc2b432864","type":"Feature","properties":{"title":"1834 - List of Collieries on the Tyne and their prices in September 1834, including the prices of Hebburn Colliery ","url":"Page 457 / Collieries on the Tyne and coal prices. (thecommonroom.org.uk)"},"geometry":{"type":"Point","coordinates":[-1.5102967,54.98262]}},{"@id":"https://w3id.org/Final%20copy%20-%20Sheet1/bfcb301e-6ba3-4d93-ac05-d86e2377d4a8","type":"Feature","properties":{"title":"1834 - List of Collieries on the Tyne and their prices in September 1834, including the prices of Heworth Colliery ","url":"Page 457 / Collieries on the Tyne and coal prices. (thecommonroom.org.uk)"},"geometry":{"type":"Point","coordinates":[-1.5598136,54.938371]}},{"@id":"https://w3id.org/Final%20copy%20-%20Sheet1/6e03a20e-c465-4e5d-b8ed-cf4cac2bb168","type":"Feature","properties":{"title":"1834 - List of Collieries on the Tyne and their prices in September 1834, including the prices of Jarrow Colliery ","url":"Page 457 / Collieries on the Tyne and coal prices. (thecommonroom.org.uk)"},"geometry":{"type":"Point","coordinates":[-1.4826042,54.982909]}},{"@id":"https://w3id.org/Final%20copy%20-%20Sheet1/bebb79c1-c369-4f50-ab70-3237c365f435","type":"Feature","properties":{"title":"1834 - List of Collieries on the Tyne and their prices in September 1834, including the prices of Ouston Colliery ","url":"Page 457 / Collieries on the Tyne and coal prices. (thecommonroom.org.uk)"},"geometry":{"type":"Point","coordinates":[-1.5898523,54.877711]}},{"@id":"https://w3id.org/Final%20copy%20-%20Sheet1/8934602f-3d11-4b68-bb91-d903409bd23a","type":"Feature","properties":{"title":"1834 - List of Collieries on the Tyne and their prices in September 1834, including the prices of Sheriff Hill Colliery","url":"Page 457 / Collieries on the Tyne and coal prices. (thecommonroom.org.uk)"},"geometry":{"type":"Point","coordinates":[-1.6006493,54.933246]}},{"@id":"https://w3id.org/Final%20copy%20-%20Sheet1/d101b8cc-26ee-4983-8b42-0034fcbe28cb","type":"Feature","properties":{"title":"1834 - List of Collieries on the Tyne and their prices in September 1834, including the prices of Townley Colliery ","url":"Page 457 / Collieries on the Tyne and coal prices. (thecommonroom.org.uk)"},"geometry":{"type":"Point","coordinates":[-1.7765979,54.969516]}},{"@id":"https://w3id.org/Final%20copy%20-%20Sheet1/81f2b7a2-0e80-46c5-b647-873589e56b9e","type":"Feature","properties":{"title":"1834 - List of Collieries on the Tyne and their prices in September 1834, including the prices of Wallsend Colliery ","url":"Page 457 / Collieries on the Tyne and coal prices. (thecommonroom.org.uk)"},"geometry":{"type":"Point","coordinates":[-1.5337258,54.987474]}},{"@id":"https://w3id.org/Final%20copy%20-%20Sheet1/97d6687c-91b7-42db-b811-d2413877da06","type":"Feature","properties":{"title":"1834 - List of Collieries on the Tyne and their prices in September 1834, including the prices of Callerton Colliery","url":"Page 457 / Collieries on the Tyne and coal prices. (thecommonroom.org.uk)"},"geometry":{"type":"Point","coordinates":[-1.746561,55.02146]}},{"@id":"https://w3id.org/Final%20copy%20-%20Sheet1/f9205a19-9798-4581-81b3-00ad821a542a","type":"Feature","properties":{"title":"1834 - List of Collieries on the Tyne and their prices in September 1834, including the prices of Killingworth Colliery","url":"Page 457 / Collieries on the Tyne and coal prices. (thecommonroom.org.uk)"},"geometry":{"type":"Point","coordinates":[-1.5540852,55.030073]}},{"@id":"https://w3id.org/Final%20copy%20-%20Sheet1/1be028dc-5ab5-4776-ad20-4e153f815821","type":"Feature","properties":{"title":"1834 - List of Collieries on the Tyne and their prices in September 1834, including the prices of Burradon  Colliery","url":"Page 457 / Collieries on the Tyne and coal prices. (thecommonroom.org.uk)"},"geometry":{"type":"Point","coordinates":[-1.5737332,55.046391]}},{"@id":"https://w3id.org/Final%20copy%20-%20Sheet1/e898db09-4559-43bf-9563-5ec90960a7e9","type":"Feature","properties":{"title":"1834 - List of Collieries on the Tyne and their prices in September 1834, including the prices of Backworth  Colliery","url":"Page 457 / Collieries on the Tyne and coal prices. (thecommonroom.org.uk)"},"geometry":{"type":"Point","coordinates":[-1.5260359,55.040634]}},{"@id":"https://w3id.org/Final%20copy%20-%20Sheet1/e6a5e3e0-7b7f-4272-916b-19b8757fbfb1","type":"Feature","properties":{"title":"1834 - List of Collieries on the Tyne and their prices in September 1834, including the prices of Collingwood  Colliery","url":"Page 457 / Collieries on the Tyne and coal prices. (thecommonroom.org.uk)"},"geometry":{"type":"Point","coordinates":[-1.4583983,55.00509]}},{"@id":"https://w3id.org/Final%20copy%20-%20Sheet1/f7ab4c6b-c4de-4498-a5c3-2de9426cbf4b","type":"Feature","properties":{"title":"1834 - List of Collieries on the Tyne and their prices in September 1834, including the prices of Cramlington  Colliery","url":"Page 457 / Collieries on the Tyne and coal prices. (thecommonroom.org.uk)"},"geometry":{"type":"Point","coordinates":[-1.5660787,55.081275]}},{"@id":"https://w3id.org/Final%20copy%20-%20Sheet1/6726ed8d-f1ef-40f8-9031-5c0c090ed1f3","type":"Feature","properties":{"title":"1834 - List of Collieries on the Tyne and their prices in September 1834, including the prices of Elswick  Colliery","url":"Page 457 / Collieries on the Tyne and coal prices. (thecommonroom.org.uk)"},"geometry":{"type":"Point","coordinates":[-1.6413,54.972302]}},{"@id":"https://w3id.org/Final%20copy%20-%20Sheet1/3b0fe082-5bd6-4d7a-8d02-2d1064485490","type":"Feature","properties":{"title":"1834 - List of Collieries on the Tyne and their prices in September 1834, including the prices of Fawdon  Colliery","url":"Page 457 / Collieries on the Tyne and coal prices. (thecommonroom.org.uk)"},"geometry":{"type":"Point","coordinates":[-1.6460854,55.014362]}},{"@id":"https://w3id.org/Final%20copy%20-%20Sheet1/0591309a-50df-4bc8-9ebe-09d0a5b75779","type":"Feature","properties":{"title":"1834 - List of Collieries on the Tyne and their prices in September 1834, including the prices of Gosforth  Colliery","url":"Page 457 / Collieries on the Tyne and coal prices. (thecommonroom.org.uk)"},"geometry":{"type":"Point","coordinates":[-1.6043975,55.007719]}},{"@id":"https://w3id.org/Final%20copy%20-%20Sheet1/c3b9d54b-64eb-4184-bb88-67845333d02d","type":"Feature","properties":{"title":"1834 - List of Collieries on the Tyne and their prices in September 1834, including the prices of Heaton  Colliery","url":"Page 457 / Collieries on the Tyne and coal prices. (thecommonroom.org.uk)"},"geometry":{"type":"Point","coordinates":[-1.5883318,54.98866]}},{"@id":"https://w3id.org/Final%20copy%20-%20Sheet1/cd3bf3bc-ec12-470c-9768-9324be894ed6","type":"Feature","properties":{"title":"1834 - List of Collieries on the Tyne and their prices in September 1834, including the prices of Holywell  Colliery","url":"Page 457 / Collieries on the Tyne and coal prices. (thecommonroom.org.uk)"},"geometry":{"type":"Point","coordinates":[-1.5145528,55.067601]}},{"@id":"https://w3id.org/Final%20copy%20-%20Sheet1/2f96638a-725e-40a0-870c-c848576f03e2","type":"Feature","properties":{"title":"1834 - List of Collieries on the Tyne and their prices in September 1834, including the prices of Monkseaton  Colliery","url":"Page 457 / Collieries on the Tyne and coal prices. (thecommonroom.org.uk)"},"geometry":{"type":"Point","coordinates":[-1.4439813,55.040287]}},{"@id":"https://w3id.org/Final%20copy%20-%20Sheet1/94bc78d1-3ac8-49d7-ab1b-585c4f2cb5f4","type":"Feature","properties":{"title":"1834 - List of Collieries on the Tyne and their prices in September 1834, including the prices of Mount Moor Colliery in Springwell","url":"Page 457 / Collieries on the Tyne and coal prices. (thecommonroom.org.uk)"},"geometry":{"type":"Point","coordinates":[-1.5563055,54.923846]}},{"@id":"https://w3id.org/Final%20copy%20-%20Sheet1/0029d35c-3af1-4e71-9c5e-aac9e594d00c","type":"Feature","properties":{"title":"1834 - List of Collieries on the Tyne and their prices in September 1834, including the prices of Percy Main Colliery ","url":"Page 457 / Collieries on the Tyne and coal prices. (thecommonroom.org.uk)"},"geometry":{"type":"Point","coordinates":[-1.4741032,54.997305]}},{"@id":"https://w3id.org/Final%20copy%20-%20Sheet1/cc6527e9-d924-4555-aa64-87361401453e","type":"Feature","properties":{"title":"1834 - List of Collieries on the Tyne and their prices in September 1834, including the prices of Seghill Colliery ","url":"Page 457 / Collieries on the Tyne and coal prices. (thecommonroom.org.uk)"},"geometry":{"type":"Point","coordinates":[-1.5474334,55.067845]}},{"@id":"https://w3id.org/Final%20copy%20-%20Sheet1/de29bbbc-723e-4d16-98ea-5397c28c5915","type":"Feature","properties":{"title":"1834 - List of Collieries on the Tyne and their prices in September 1834, including the prices of Springwelll Colliery ","url":"Page 457 / Collieries on the Tyne and coal prices. (thecommonroom.org.uk)"},"geometry":{"type":"Point","coordinates":[-1.5611038,54.910177]}},{"@id":"https://w3id.org/Final%20copy%20-%20Sheet1/7f87ff85-21bf-46d9-a98e-84b8b78d968b","type":"Feature","properties":{"title":"1834 - List of Collieries on the Tyne and their prices in September 1834, including the prices of St Lawrence Colliery in Byker","url":"Page 457 / Collieries on the Tyne and coal prices. (thecommonroom.org.uk)"},"geometry":{"type":"Point","coordinates":[-1.5818615,54.970638]}},{"@id":"https://w3id.org/Final%20copy%20-%20Sheet1/701b08b7-ec10-43b6-a371-8fffba3b8db4","type":"Feature","properties":{"title":"1834 - List of Collieries on the Tyne and their prices in September 1834, including the prices of Team Colliery","url":"Page 457 / Collieries on the Tyne and coal prices. (thecommonroom.org.uk)"},"geometry":{"type":"Point","coordinates":[1.591741,54.917527]}},{"@id":"https://w3id.org/Final%20copy%20-%20Sheet1/d8d31cd9-132b-4748-9ea7-838b558eae17","type":"Feature","properties":{"title":"1834 - List of Collieries on the Tyne and their prices in September 1834, including the prices of Tanfield Lea & Garsfield Colliery","url":"Page 457 / Collieries on the Tyne and coal prices. (thecommonroom.org.uk)"},"geometry":{"type":"Point","coordinates":[-1.7131944,54.87952]}},{"@id":"https://w3id.org/Final%20copy%20-%20Sheet1/63cca29e-0e6b-46dd-aa87-5cc7eb5492f0","type":"Feature","properties":{"title":"1834 - List of Collieries on the Tyne and their prices in September 1834, including the prices of Tanfield Moor Colliery","url":"Page 457 / Collieries on the Tyne and coal prices. (thecommonroom.org.uk)"},"geometry":{"type":"Point","coordinates":[-1.6990648,54.891204]}},{"@id":"https://w3id.org/Final%20copy%20-%20Sheet1/68807dd4-9193-4e01-b910-b240f25a97f7","type":"Feature","properties":{"title":"1834 - List of Collieries on the Tyne and their prices in September 1834, including the prices of Usworth Colliery","url":"Page 457 / Collieries on the Tyne and coal prices. (thecommonroom.org.uk)"},"geometry":{"type":"Point","coordinates":[-1.5099497,54.91868]}},{"@id":"https://w3id.org/Final%20copy%20-%20Sheet1/7d5647ef-05e0-4a4f-ad96-c3b0e927aab6","type":"Feature","properties":{"title":"1834 - List of Collieries on the Tyne and their prices in September 1834, including the prices of Tyne Main Colliery","url":"Page 457 / Collieries on the Tyne and coal prices. (thecommonroom.org.uk)"},"geometry":{"type":"Point","coordinates":[-1.572941,54.962356]}},{"@id":"https://w3id.org/Final%20copy%20-%20Sheet1/0d11ab1e-5cac-4a43-aca7-f85ef3f0b814","type":"Feature","properties":{"title":"1834 - List of Collieries on the Tyne and their prices in September 1834, including the prices of Waldridge Colliery","url":"Page 457 / Collieries on the Tyne and coal prices. (thecommonroom.org.uk)"},"geometry":{"type":"Point","coordinates":[-1.610895,54.845015]}},{"@id":"https://w3id.org/Final%20copy%20-%20Sheet1/4e8651eb-d6be-48f3-94e1-a284f4b1d005","type":"Feature","properties":{"title":"1834 - List of Collieries on the Tyne and their prices in September 1834, including the prices of Walker Colliery","url":"Page 457 / Collieries on the Tyne and coal prices. (thecommonroom.org.uk)"},"geometry":{"type":"Point","coordinates":[-1.5427555,54.96985]}},{"@id":"https://w3id.org/Final%20copy%20-%20Sheet1/da7e152f-eeee-40fa-a7e5-b0d022e6b7b3","type":"Feature","properties":{"title":"1834 - List of Collieries on the Tyne and their prices in September 1834, including the prices of Walbottle Colliery","url":"Page 457 / Collieries on the Tyne and coal prices. (thecommonroom.org.uk)"},"geometry":{"type":"Point","coordinates":[-1.7383515,54.989928]}},{"@id":"https://w3id.org/Final%20copy%20-%20Sheet1/284c0125-875a-403a-92ed-e68c91db9d43","type":"Feature","properties":{"title":"1834 - List of Collieries on the Tyne and their prices in September 1834, including the prices of Willington Colliery","url":"Page 457 / Collieries on the Tyne and coal prices. (thecommonroom.org.uk)"},"geometry":{"type":"Point","coordinates":[-1.6919675,54.701292]}},{"@id":"https://w3id.org/Final%20copy%20-%20Sheet1/798f40fd-c91a-4246-988e-580233661c3e","type":"Feature","properties":{"title":"1834 - List of Collieries on the Tyne and their prices in September 1834, including the prices of Wideopen Colliery","url":"Page 457 / Collieries on the Tyne and coal prices. (thecommonroom.org.uk)"},"geometry":{"type":"Point","coordinates":[-1.6180129,55.0459]}},{"@id":"https://w3id.org/Final%20copy%20-%20Sheet1/83582c1f-ae9a-4217-b5d3-2e6107edc2a3","type":"Feature","properties":{"title":"1834 - List of Collieries on the Tyne and their prices in September 1834, including the prices of Wylam Colliery","url":"Page 457 / Collieries on the Tyne and coal prices. (thecommonroom.org.uk)"},"geometry":{"type":"Point","coordinates":[-1.8265635,54.9740905]}},{"@id":"https://w3id.org/Final%20copy%20-%20Sheet1/233a041f-501e-4bf1-afc1-32d32cae7cf6","type":"Feature","properties":{"title":"1835 - Account of Coals at London Market including their prices. Medomsley Colliery is featured on the list. ","url":"Page 461 / Coals at London Market (thecommonroom.org.uk)"},"geometry":{"type":"Point","coordinates":[-1.8223824,54.877032]}},{"@id":"https://w3id.org/Final%20copy%20-%20Sheet1/ce0195d9-a077-4393-bd7b-eedad44cc0f8","type":"Feature","properties":{"title":"1835 - Account of Coals at London Market including their prices. Stormont Main Colliery is featured on the list. ","url":"Page 461 / Coals at London Market (thecommonroom.org.uk)"},"geometry":{"type":"Point","coordinates":[-1.5711668,54.926083]}},{"@id":"https://w3id.org/Final%20copy%20-%20Sheet1/78720d2f-9b63-4055-a18e-3f813790f807","type":"Feature","properties":{"title":"1835 - A letter from the Editor of the Newcastle Journal regarding the Morpeth Railroad and the Coal Trade","url":"Page 463-464 / Morpeth Railroad and the Coal Trade (thecommonroom.org.uk)"},"geometry":{"type":"Point","coordinates":[-1.683159,55.16226]}},{"@id":"https://w3id.org/Final%20copy%20-%20Sheet1/95c5b347-5123-473a-ac0d-7a1b2b289dad","type":"Feature","properties":{"title":"1835 - Account of Coals at London Market including their prices. Bradley Colliery is featured on the list. ","url":"Page 461 / Coals at London Market (thecommonroom.org.uk)"},"geometry":{"type":"Point","coordinates":[-1.8085001,54.859811]}},{"@id":"https://w3id.org/Final%20copy%20-%20Sheet1/830e9b85-ecf9-4b2d-8e0f-b2a49539203a","type":"Feature","properties":{"title":"1835 - Account of Coals at London Market including their prices. Ellison Low Main (sometimes reffered to as Sheriff's Hill)is featured on the list. ","url":"Page 461 / Coals at London Market (thecommonroom.org.uk)"},"geometry":{"type":"Point","coordinates":[-1.6006493,54.933246]}},{"@id":"https://w3id.org/Final%20copy%20-%20Sheet1/593dcf2f-fa3e-4a08-ba0e-c2d303240b68","type":"Feature","properties":{"title":"1835 - Account of Coals at London Market including their prices. East Percy Colliery is featured on the list. ","url":"Page 461 / Coals at London Market (thecommonroom.org.uk)"},"geometry":{"type":"Point","coordinates":[-1.49026,55.004646]}},{"@id":"https://w3id.org/Final%20copy%20-%20Sheet1/940a76e3-243b-449d-aafd-032e98a7ad1d","type":"Feature","properties":{"title":"1835 - Account of Coals at London Market including their prices. Felling Colliery is featured on the list. ","url":"Page 461 / Coals at London Market (thecommonroom.org.uk)"},"geometry":{"type":"Point","coordinates":[-1.5721357,54.955364]}},{"@id":"https://w3id.org/Final%20copy%20-%20Sheet1/763ba609-9e16-439f-ba34-4494bdc08466","type":"Feature","properties":{"title":"1835 - Account of Coals at London Market including their prices. Garesfield Colliery is featured on the list. ","url":"Page 461 / Coals at London Market (thecommonroom.org.uk)"},"geometry":{"type":"Point","coordinates":[-1.7839821,54.932416]}},{"@id":"https://w3id.org/Final%20copy%20-%20Sheet1/453f9240-2c0a-4078-845c-ea80c675cdd0","type":"Feature","properties":{"title":"1835 - Account of Coals at London Market including their prices. Hebburn Colliery is featured on the list. ","url":"Page 461 / Coals at London Market (thecommonroom.org.uk)"},"geometry":{"type":"Point","coordinates":[-1.5102967,54.98262]}},{"@id":"https://w3id.org/Final%20copy%20-%20Sheet1/d24b4af0-2e3b-4d3b-9994-87a1df80da2e","type":"Feature","properties":{"title":"1835 - Account of Coals at London Market including their prices. Hollywell Colliery is featured on the list. ","url":"Page 461 / Coals at London Market (thecommonroom.org.uk)"},"geometry":{"type":"Point","coordinates":[-1.5145528,55.067601]}},{"@id":"https://w3id.org/Final%20copy%20-%20Sheet1/1d43673f-389a-4003-84ec-09522ca0e923","type":"Feature","properties":{"title":"1835 - Account of Coals at London Market including their prices. Redheugh Colliery is featured on the list. ","url":"Page 461 / Coals at London Market (thecommonroom.org.uk)"},"geometry":{"type":"Point","coordinates":[-1.6190847,54.957586]}},{"@id":"https://w3id.org/Final%20copy%20-%20Sheet1/0e9567d9-800a-4823-b772-9b4f8565b4d6","type":"Feature","properties":{"title":"1835 - Account of Coals at London Market including their prices. Pelaw Colliery is featured on the list. ","url":"Page 461 / Coals at London Market (thecommonroom.org.uk)"},"geometry":{"type":"Point","coordinates":[-1.5891288,54.864561]}},{"@id":"https://w3id.org/Final%20copy%20-%20Sheet1/aa0ce437-bfb0-4014-aa32-43985967a67d","type":"Feature","properties":{"title":"1835 - Account of Coals at London Market including their prices. Pontop Colliery is featured on the list. ","url":"Page 461 / Coals at London Market (thecommonroom.org.uk)"},"geometry":{"type":"Point","coordinates":[-1.747836,54.860366]}},{"@id":"https://w3id.org/Final%20copy%20-%20Sheet1/35ebcd52-7dbf-4124-a9b3-ae08a4ca818a","type":"Feature","properties":{"title":"1835 - Account of Coals at London Market including their prices. Shipcote Colliery is featured on the list. ","url":"Page 461 / Coals at London Market (thecommonroom.org.uk)"},"geometry":{"type":"Point","coordinates":[-1.5961291,54.959166]}},{"@id":"https://w3id.org/Final%20copy%20-%20Sheet1/18af8605-bef7-49d1-9014-86308968f7b6","type":"Feature","properties":{"title":"1835 - Account of Coals at London Market including their prices. Hartley Colliery is featured on the list. ","url":"Page 461 / Coals at London Market (thecommonroom.org.uk)"},"geometry":{"type":"Point","coordinates":[-1.514167,55.083889]}},{"@id":"https://w3id.org/Final%20copy%20-%20Sheet1/b5f9f83f-9f35-44a2-8b67-42d355519421","type":"Feature","properties":{"title":"1835 - Account of Coals at London Market including their prices. Willington Colliery is featured on the list. ","url":"Page 461 / Coals at London Market (thecommonroom.org.uk)"},"geometry":{"type":"Point","coordinates":[-1.6919675,54.701292]}},{"@id":"https://w3id.org/Final%20copy%20-%20Sheet1/3d539f95-d72c-4301-8f5d-88655807516f","type":"Feature","properties":{"title":"1835 - Account of Coals at London Market including their prices. Wylam Colliery is featured on the list. ","url":"Page 461 / Coals at London Market (thecommonroom.org.uk)"},"geometry":{"type":"Point","coordinates":[-1.8265635,54.9740905]}},{"@id":"https://w3id.org/Final%20copy%20-%20Sheet1/36bebf25-23a9-4599-9345-7cbb91b77100","type":"Feature","properties":{"title":"1835 - Account of Coals at London Market including their prices. Wallsend Colliery is featured on the list. ","url":"Page 461 / Coals at London Market (thecommonroom.org.uk)"},"geometry":{"type":"Point","coordinates":[-1.5170374,54.991228]}},{"@id":"https://w3id.org/Final%20copy%20-%20Sheet1/cea0091b-0f9e-421a-b419-6db72ef168d6","type":"Feature","properties":{"title":"1835 - Account of Coals at London Market including their prices. Waldridge Colliery is featured on the list. ","url":"Page 461 / Coals at London Market (thecommonroom.org.uk)"},"geometry":{"type":"Point","coordinates":[-1.610895,-1.610895]}},{"@id":"https://w3id.org/Final%20copy%20-%20Sheet1/59613191-81d9-412d-8c56-812f6ce9cfd2","type":"Feature","properties":{"title":"1835 - Account of Coals at London Market including their prices. Howden Colliery is featured on the list. ","url":"Page 461 / Coals at London Market (thecommonroom.org.uk)"},"geometry":{"type":"Point","coordinates":[-1.484939,54.992157]}},{"@id":"https://w3id.org/Final%20copy%20-%20Sheet1/5055a45d-fc05-44e0-b74f-5e43f0be8e38","type":"Feature","properties":{"title":"1835 - Account of Coals at London Market including their prices. Gosforth Colliery is featured on the list. ","url":"Page 461 / Coals at London Market (thecommonroom.org.uk)"},"geometry":{"type":"Point","coordinates":[-1.6043975,55.007719]}},{"@id":"https://w3id.org/Final%20copy%20-%20Sheet1/aad280c4-ddff-4c9c-af84-33b9b7e5e7cd","type":"Feature","properties":{"title":"1835 - Account of Coals at London Market including their prices. Heaton Colliery is featured on the list. ","url":"Page 461 / Coals at London Market (thecommonroom.org.uk)"},"geometry":{"type":"Point","coordinates":[-1.5883318,54.98866]}},{"@id":"https://w3id.org/Final%20copy%20-%20Sheet1/dc764af8-b949-4d52-8096-6224016d0e1a","type":"Feature","properties":{"title":"1835 - Account of Coals at London Market including their prices. Hilda Colliery is featured on the list. ","url":"Page 461 / Coals at London Market (thecommonroom.org.uk)"},"geometry":{"type":"Point","coordinates":[-1.4352215,54.994417]}},{"@id":"https://w3id.org/Final%20copy%20-%20Sheet1/7ce3fc65-8fd0-4c47-8483-ba473e02b712","type":"Feature","properties":{"title":"1835 - Account of Coals at London Market including their prices. Lanchester Colliery is featured on the list. ","url":"Page 461 / Coals at London Market (thecommonroom.org.uk)"},"geometry":{"type":"Point","coordinates":[-1.7594832,54.827185]}},{"@id":"https://w3id.org/Final%20copy%20-%20Sheet1/117f0856-0067-4ada-b5e6-fb6ad8b66038","type":"Feature","properties":{"title":"1835 - Account of Coals at London Market including their prices. Walker Colliery is featured on the list. ","url":"Page 461 / Coals at London Market (thecommonroom.org.uk)"},"geometry":{"type":"Point","coordinates":[-1.5427555,54.96985]}},{"@id":"https://w3id.org/Final%20copy%20-%20Sheet1/e5788a21-6b80-44d2-931a-058fc7641fcc","type":"Feature","properties":{"title":"1835 - Account of Coals at London Market including their prices. Killingworth Colliery is featured on the list. ","url":"Page 461 / Coals at London Market (thecommonroom.org.uk)"},"geometry":{"type":"Point","coordinates":[-1.5540852,55.030073]}},{"@id":"https://w3id.org/Final%20copy%20-%20Sheet1/7b82ae07-baf0-4d22-a945-d2a50aae6b55","type":"Feature","properties":{"title":"1835 - Account of Coals at London Market including their prices. Peareth Colliery is featured on the list. ","url":"Page 461 / Coals at London Market (thecommonroom.org.uk)"},"geometry":{"type":"Point","coordinates":[-1.5196812,54.877022]}},{"@id":"https://w3id.org/Final%20copy%20-%20Sheet1/bdc2abf3-fe94-495a-9a73-3820ab4cc1c0","type":"Feature","properties":{"title":"1835 - Account of Coals at London Market including their prices. Chirton Colliery is featured on the list. ","url":"Page 461 / Coals at London Market (thecommonroom.org.uk)"},"geometry":{"type":"Point","coordinates":[-1.4540994,55.006194]}},{"@id":"https://w3id.org/Final%20copy%20-%20Sheet1/5a468661-b108-4056-828b-949a45bc0259","type":"Feature","properties":{"title":"1835 - Account of Coals at London Market including their prices. Russell's Wallsend Pit is featured on the list. ","url":"Page 461 / Coals at London Market (thecommonroom.org.uk)"},"geometry":{"type":"Point","coordinates":[-1.5171472,54.991193]}},{"@id":"https://w3id.org/Final%20copy%20-%20Sheet1/c72f5b42-6124-47fc-8dbb-65d8ad74091a","type":"Feature","properties":{"title":"1835 - Account of Coals at London Market including their prices. Eden Main Pit is featured on the list. ","url":"Page 461 / Coals at London Market (thecommonroom.org.uk)"},"geometry":{"type":"Point","coordinates":[-1.5171472,54.991193]}},{"@id":"https://w3id.org/Final%20copy%20-%20Sheet1/67d1db4e-c063-4a8a-955f-37b9df0af5a4","type":"Feature","properties":{"title":"1835 - Account of Coals at London Market including their prices. Hetton Colliery is featured on the list. ","url":"Page 461 / Coals at London Market (thecommonroom.org.uk)"},"geometry":{"type":"Point","coordinates":[-1.4420939,54.816481]}},{"@id":"https://w3id.org/Final%20copy%20-%20Sheet1/c7666d4f-bbcf-4594-9b1e-6be310bc7848","type":"Feature","properties":{"title":"1835 - Account of Coals at London Market including their prices. Lambton Colliery is featured on the list. ","url":"Page 461 / Coals at London Market (thecommonroom.org.uk)"},"geometry":{"type":"Point","coordinates":[-1.506311,54.850099]}},{"@id":"https://w3id.org/Final%20copy%20-%20Sheet1/a1be9b75-3b63-45d2-a7f7-7d54c17b8598","type":"Feature","properties":{"title":"1835 - Account of Coals at London Market including their prices. Haswell Colliery is featured on the list. ","url":"Page 461 / Coals at London Market (thecommonroom.org.uk)"},"geometry":{"type":"Point","coordinates":[-1.420204,54.773719]}},{"@id":"https://w3id.org/Final%20copy%20-%20Sheet1/6633b00e-374d-4abd-b238-0df68b923b1e","type":"Feature","properties":{"title":"1835 - Account of Coals at London Market including their prices. Deanery Colliery is featured on the list. ","url":"Page 461 / Coals at London Market (thecommonroom.org.uk)"},"geometry":{"type":"Point","coordinates":[-1.6582245,54.643166]}},{"@id":"https://w3id.org/Final%20copy%20-%20Sheet1/b06f0f06-5678-4787-a3ee-2d3bb2af36c7","type":"Feature","properties":{"title":"1835 - Account of Coals at London Market including their prices. St Helen's Colliery is featured on the list. ","url":"Page 461 / Coals at London Market (thecommonroom.org.uk)"},"geometry":{"type":"Point","coordinates":[-1.6978546,54.637744]}},{"@id":"https://w3id.org/Final%20copy%20-%20Sheet1/6f3ca8c7-5136-4b12-b7ad-b26c69469e1f","type":"Feature","properties":{"title":"1835 - Account of Coals at London Market including their prices. Tanfield Colliery is featured on the list. ","url":"Page 461 / Coals at London Market (thecommonroom.org.uk)"},"geometry":{"type":"Point","coordinates":[-1.6990648,54.891204]}},{"@id":"https://w3id.org/Final%20copy%20-%20Sheet1/59d39f06-a2eb-4df7-b65d-37d81e5263f5","type":"Feature","properties":{"title":"1835 - Account of Coals at London Market including their prices. Adelaide Colliery is featured on the list. ","url":"Page 461 / Coals at London Market (thecommonroom.org.uk)"},"geometry":{"type":"Point","coordinates":[-1.6637188,54.643945]}},{"@id":"https://w3id.org/Final%20copy%20-%20Sheet1/5c3f8b4e-26d9-4f2c-a207-52ffe38d70ba","type":"Feature","properties":{"title":"1835 - Account of Coals at London Market including their prices. Butterknowle Colliery is featured on the list. ","url":"Page 461 / Coals at London Market (thecommonroom.org.uk)"},"geometry":{"type":"Point","coordinates":[-1.8342394,54.626325]}},{"@id":"https://w3id.org/Final%20copy%20-%20Sheet1/ff929461-bcab-462b-b774-16616321e397","type":"Feature","properties":{"title":"1835 - Account of Coals at London Market including their prices. Gordon House Colliery is featured on the list. ","url":"Page 461 / Coals at London Market (thecommonroom.org.uk)"},"geometry":{"type":"Point","coordinates":[-1.7986778,54.61369]}},{"@id":"https://w3id.org/Final%20copy%20-%20Sheet1/431d2948-b4be-4c04-8af2-f6436e395617","type":"Feature","properties":{"title":"1835 - Account of Coals at London Market including their prices. South Durham Colliery is featured on the list. ","url":"Page 461 / Coals at London Market (thecommonroom.org.uk)"},"geometry":{"type":"Point","coordinates":[-1.629722222,54.64638889]}},{"@id":"https://w3id.org/Final%20copy%20-%20Sheet1/80f20677-6206-423d-8d47-646db5512e80","type":"Feature","properties":{"title":"1835 - Account of Coals at London Market including their prices. North Tees Colliery is featured on the list. ","url":"Page 461 / Coals at London Market (thecommonroom.org.uk)"},"geometry":{"type":"Point","coordinates":[-1.8115319,54.542634]}},{"@id":"https://w3id.org/Final%20copy%20-%20Sheet1/9a77da25-1afb-471b-b160-13f333afab4b","type":"Feature","properties":{"title":"1835 - Account of Coals at London Market including their prices. West Hetton Colliery is featured on the list. ","url":"Page 461 / Coals at London Market (thecommonroom.org.uk)"},"geometry":{"type":"Point","coordinates":[-1.4999758,54.728754]}},{"@id":"https://w3id.org/Final%20copy%20-%20Sheet1/bd4f8b0e-a260-4e73-8a6f-35c257142ff3","type":"Feature","properties":{"title":"1835 - Account of Coals at London Market including their prices. Victoria Colliery is featured on the list. ","url":"Page 461 / Coals at London Market (thecommonroom.org.uk)"},"geometry":{"type":"Point","coordinates":[-1.8250156,54.610136]}},{"@id":"https://w3id.org/Final%20copy%20-%20Sheet1/2b901e4e-c29c-4ef1-b978-ca3447ff088d","type":"Feature","properties":{"title":"1835 - Account of Coals at London Market including their prices. Cowpen Colliery is featured on the list. ","url":"Page 461 / Coals at London Market (thecommonroom.org.uk)"},"geometry":{"type":"Point","coordinates":[-1.5315941,55.119509]}},{"@id":"https://w3id.org/Final%20copy%20-%20Sheet1/c93bfab0-1ef6-4666-8ace-9d1b3430e58e","type":"Feature","properties":{"title":"1835 - Account of Coals at London Market including their prices. Cowpen Colliery is featured on the list. ","url":"Page 461 / Coals at London Market (thecommonroom.org.uk)"},"geometry":{"type":"Point","coordinates":[-1.514167,55.083889]}},{"@id":"https://w3id.org/Final%20copy%20-%20Sheet1/173faab0-4a8d-4659-a1cd-8f57c7b8b76c","type":"Feature","properties":{"title":"1835 - Account of Coals at London Market including their prices. Warbro Park Colliery is featured on the list. ","url":"Page 461 / Coals at London Market (thecommonroom.org.uk)"},"geometry":{"type":"Point","coordinates":[-1.46646,53.51773]}},{"@id":"https://w3id.org/Final%20copy%20-%20Sheet1/a96318f2-5daf-47a6-ae84-eca23850f112","type":"Feature","properties":{"title":"1835 - Account of Coals at London Market including their prices. Netherton Colliery's Howard Pit is featured on the list. ","url":"Page 461 / Coals at London Market (thecommonroom.org.uk)"},"geometry":{"type":"Point","coordinates":[-1.6263354,55.137053]}},{"@id":"https://w3id.org/Final%20copy%20-%20Sheet1/d216e30c-20b3-4ebf-ba08-3970029f4921","type":"Feature","properties":{"title":"1835 - Account of Coals at London Market including their prices. Silkstone Colliery's Howard Pit is featured on the list. ","url":"Page 461 / Coals at London Market (thecommonroom.org.uk)"},"geometry":{"type":"Point","coordinates":[-1.5642989,53.543188]}},{"@id":"https://w3id.org/Final%20copy%20-%20Sheet1/6628262b-b53d-49ba-bc06-70cddbcc9c80","type":"Feature","properties":{"title":"1835 - Account of Coals at London Market including their prices. Gawber Hall Colliery is featured on the list. ","url":"Page 461 / Coals at London Market (thecommonroom.org.uk)"},"geometry":{"type":"Point","coordinates":[-1.4962133,53.542921]}},{"@id":"https://w3id.org/Final%20copy%20-%20Sheet1/a25c7a99-b800-4c5b-b40a-98df95903fa0","type":"Feature","properties":{"title":"1835 - Account of Coals at London Market including their prices. Tranent Colliery is featured on the list. ","url":"Page 461 / Coals at London Market (thecommonroom.org.uk)"},"geometry":{"type":"Point","coordinates":[-2.9387449,55.94361]}},{"@id":"https://w3id.org/Final%20copy%20-%20Sheet1/1ad44f16-1a2b-4a09-8011-1e2737fb94b4","type":"Feature","properties":{"title":"1835 - Account of Coals at London Market including their prices. Flockton Colliery is featured on the list. ","url":"Page 461 / Coals at London Market (thecommonroom.org.uk)"},"geometry":{"type":"Point","coordinates":[-1.631,53.632]}},{"@id":"https://w3id.org/Final%20copy%20-%20Sheet1/ee4cc15d-9bfd-44bb-9132-680eb696769a","type":"Feature","properties":{"title":"1831 - Handbill giving an account of the meeting of pitmen on the Town Moor where they voiced complaints abour working conditions and wages","url":"https://thecommonroom.org.uk/collection/handbill-giving-an-account-of-the-meeting-of-pitmen-on-the-town-moor-16404/page-218-219-27234/#collection-gallery"},"geometry":{"type":"Point","coordinates":[-1.633,54.992]}},{"@id":"https://w3id.org/Final%20copy%20-%20Sheet1/5531b57d-5c48-4a7e-b993-e72fc340c702","type":"Feature","properties":{"title":"1837 - A document listing the quantity of coal shipped from English, Scottish and Irish ports in 1836 and 1837. Port of Dover appears on the list","url":"https://thecommonroom.org.uk/collection/coal-shipped-from-english-scottish-and-irish-ports-16113/page-499-504-26942/#collection-gallery"},"geometry":{"type":"Point","coordinates":[1.329444,51.119167]}},{"@id":"https://w3id.org/Final%20copy%20-%20Sheet1/163fe5a4-7a49-42f4-8cae-10b6df3943c6","type":"Feature","properties":{"title":"1837 - A document listing the quantity of coal shipped from English, Scottish and Irish ports in 1836 and 1837. Shoreham Port ppears on the list","url":"https://thecommonroom.org.uk/collection/coal-shipped-from-english-scottish-and-irish-ports-16113/page-499-504-26942/#collection-gallery"},"geometry":{"type":"Point","coordinates":[-0.2381705,50.831132]}},{"@id":"https://w3id.org/Final%20copy%20-%20Sheet1/d2064b8e-4ffd-4f9d-9da3-ea26f6bf2684","type":"Feature","properties":{"title":"1837 - A document listing the quantity of coal shipped from English, Scottish and Irish ports in 1836 and 1837. Portsmouth Port ppears on the list","url":"https://thecommonroom.org.uk/collection/coal-shipped-from-english-scottish-and-irish-ports-16113/page-499-504-26942/#collection-gallery"},"geometry":{"type":"Point","coordinates":[-1.090738,50.812037]}},{"@id":"https://w3id.org/Final%20copy%20-%20Sheet1/59aa2277-3d48-4824-a900-fb4f9dd163ab","type":"Feature","properties":{"title":"1837 - A document listing the quantity of coal shipped from English, Scottish and Irish ports in 1836 and 1837. Poole Port ppears on the list","url":"https://thecommonroom.org.uk/collection/coal-shipped-from-english-scottish-and-irish-ports-16113/page-499-504-26942/#collection-gallery"},"geometry":{"type":"Point","coordinates":[-1.99248,50.7096]}},{"@id":"https://w3id.org/Final%20copy%20-%20Sheet1/2a01f815-bb33-4a11-92d7-85225d73c649","type":"Feature","properties":{"title":"1837 - A document listing the quantity of coal shipped from English, Scottish and Irish ports in 1836 and 1837. Dartmouth Harbour ppears on the list","url":"https://thecommonroom.org.uk/collection/coal-shipped-from-english-scottish-and-irish-ports-16113/page-499-504-26942/#collection-gallery"},"geometry":{"type":"Point","coordinates":[-3.577778,50.351667]}},{"@id":"https://w3id.org/Final%20copy%20-%20Sheet1/8a2a357c-ca90-489c-a283-b785a021b9c0","type":"Feature","properties":{"title":"1837 - A document listing the quantity of coal shipped from English, Scottish and Irish ports in 1836 and 1837. Plymouth Harbour ppears on the list","url":"https://thecommonroom.org.uk/collection/coal-shipped-from-english-scottish-and-irish-ports-16113/page-499-504-26942/#collection-gallery"},"geometry":{"type":"Point","coordinates":[-4.15434,50.3678]}},{"@id":"https://w3id.org/Final%20copy%20-%20Sheet1/a3647df9-be63-4ef7-b265-4bfc99193dcb","type":"Feature","properties":{"title":"1837 - A document listing the quantity of coal shipped from English, Scottish and Irish ports in 1836 and 1837. Falmouth Port ppears on the list","url":"https://thecommonroom.org.uk/collection/coal-shipped-from-english-scottish-and-irish-ports-16113/page-499-504-26942/#collection-gallery"},"geometry":{"type":"Point","coordinates":[-5.05566,50.1523]}},{"@id":"https://w3id.org/Final%20copy%20-%20Sheet1/e41923ab-21a8-4241-adea-d90361284354","type":"Feature","properties":{"title":"1837 - A document listing the quantity of coal shipped from English, Scottish and Irish ports in 1836 and 1837. Port of Bristol ppears on the list","url":"https://thecommonroom.org.uk/collection/coal-shipped-from-english-scottish-and-irish-ports-16113/page-499-504-26942/#collection-gallery"},"geometry":{"type":"Point","coordinates":[-2.71621,51.50329]}},{"@id":"https://w3id.org/Final%20copy%20-%20Sheet1/e1fc8f39-a910-4728-a65b-5356c3dd051a","type":"Feature","properties":{"title":"1837 - A document listing the quantity of coal shipped from English, Scottish and Irish ports in 1836 and 1837. Gloucester Harbour appears on the list","url":"https://thecommonroom.org.uk/collection/coal-shipped-from-english-scottish-and-irish-ports-16113/page-499-504-26942/#collection-gallery"},"geometry":{"type":"Point","coordinates":[-2.251944,51.8625]}},{"@id":"https://w3id.org/Final%20copy%20-%20Sheet1/b56b319f-5db0-48c0-b0b8-4a07537ed88d","type":"Feature","properties":{"title":"1837 - A document listing the quantity of coal shipped from English, Scottish and Irish ports in 1836 and 1837. The port of Cardiff (Cardiff Docks) appears on the list","url":"https://thecommonroom.org.uk/collection/coal-shipped-from-english-scottish-and-irish-ports-16113/page-499-504-26942/#collection-gallery"},"geometry":{"type":"Point","coordinates":[-3.15382,51.46533]}},{"@id":"https://w3id.org/Final%20copy%20-%20Sheet1/eaf0ea83-7ba8-416a-ab85-bbe8ecbc2bc1","type":"Feature","properties":{"title":"1837 - A document listing the quantity of coal shipped from English, Scottish and Irish ports in 1836 and 1837. The port of Newport appears on the list","url":"https://thecommonroom.org.uk/collection/coal-shipped-from-english-scottish-and-irish-ports-16113/page-499-504-26942/#collection-gallery"},"geometry":{"type":"Point","coordinates":[-2.9846617,51.565256]}},{"@id":"https://w3id.org/Final%20copy%20-%20Sheet1/2a0622cc-8077-4869-8a53-97ea770d2f3a","type":"Feature","properties":{"title":"1837 - A document listing the quantity of coal shipped from English, Scottish and Irish ports in 1836 and 1837. Swansea Port appears on the list","url":"https://thecommonroom.org.uk/collection/coal-shipped-from-english-scottish-and-irish-ports-16113/page-499-504-26942/#collection-gallery"},"geometry":{"type":"Point","coordinates":[-3.91844,51.61646]}},{"@id":"https://w3id.org/Final%20copy%20-%20Sheet1/1cdf3ae2-bf5a-4d31-9c5d-a69bd6cb8a80","type":"Feature","properties":{"title":"1837 - A document listing the quantity of coal shipped from English, Scottish and Irish ports in 1836 and 1837. Llanelli (or Llanelly) docks appears on the list","url":"https://thecommonroom.org.uk/collection/coal-shipped-from-english-scottish-and-irish-ports-16113/page-499-504-26942/#collection-gallery"},"geometry":{"type":"Point","coordinates":[-4.17322,51.67522]}},{"@id":"https://w3id.org/Final%20copy%20-%20Sheet1/5b639628-2b11-48fe-872c-75b9f71024b0","type":"Feature","properties":{"title":"1837 - A document listing the quantity of coal shipped from English, Scottish and Irish ports in 1836 and 1837. Milford Port appears on the list","url":"https://thecommonroom.org.uk/collection/coal-shipped-from-english-scottish-and-irish-ports-16113/page-499-504-26942/#collection-gallery"},"geometry":{"type":"Point","coordinates":[-5.052376,51.70778]}},{"@id":"https://w3id.org/Final%20copy%20-%20Sheet1/18069a67-e7f3-4617-a526-28340119a154","type":"Feature","properties":{"title":"1837 - A document listing the quantity of coal shipped from English, Scottish and Irish ports in 1836 and 1837. Chester Old Port appears on the list","url":"https://thecommonroom.org.uk/collection/coal-shipped-from-english-scottish-and-irish-ports-16113/page-499-504-26942/#collection-gallery"},"geometry":{"type":"Point","coordinates":[-2.9023864,53.190852]}},{"@id":"https://w3id.org/Final%20copy%20-%20Sheet1/6bb41830-5212-46f6-8476-30c87a56ec28","type":"Feature","properties":{"title":"1837 - A document listing the quantity of coal shipped from English, Scottish and Irish ports in 1836 and 1837. Liverpool Port appears on the list","url":"https://thecommonroom.org.uk/collection/coal-shipped-from-english-scottish-and-irish-ports-16113/page-499-504-26942/#collection-gallery"},"geometry":{"type":"Point","coordinates":[-2.996,53.406]}},{"@id":"https://w3id.org/Final%20copy%20-%20Sheet1/d3d4eaf9-27ac-4672-883e-ddf7e574f2d3","type":"Feature","properties":{"title":"1837 - A document listing the quantity of coal shipped from English, Scottish and Irish ports in 1836 and 1837. Lancaster Port appears on the list","url":"https://thecommonroom.org.uk/collection/coal-shipped-from-english-scottish-and-irish-ports-16113/page-499-504-26942/#collection-gallery"},"geometry":{"type":"Point","coordinates":[-2.8499743,53.998822]}},{"@id":"https://w3id.org/Final%20copy%20-%20Sheet1/726b5fc5-aa0e-4f11-9e3a-8da27190c5a2","type":"Feature","properties":{"title":"1837 - A document listing the quantity of coal shipped from English, Scottish and Irish ports in 1836 and 1837. Whitehaven Port appears on the list","url":"https://thecommonroom.org.uk/collection/coal-shipped-from-english-scottish-and-irish-ports-16113/page-499-504-26942/#collection-gallery"},"geometry":{"type":"Point","coordinates":[-3.593807,54.55091]}},{"@id":"https://w3id.org/Final%20copy%20-%20Sheet1/5000e5c8-fd11-4e37-ba76-42d0b7f3fa9a","type":"Feature","properties":{"title":"1837 - A document listing the quantity of coal shipped from English, Scottish and Irish ports in 1836 and 1837. Port of Carlise appears on the list","url":"https://thecommonroom.org.uk/collection/coal-shipped-from-english-scottish-and-irish-ports-16113/page-499-504-26942/#collection-gallery"},"geometry":{"type":"Point","coordinates":[-3.1865323,54.948652]}},{"@id":"https://w3id.org/Final%20copy%20-%20Sheet1/05399602-6756-4b26-aa28-803f64e8b27c","type":"Feature","properties":{"title":"1837 - A document listing the quantity of coal shipped from English, Scottish and Irish ports in 1836 and 1837. Port of Berwick appears on the list","url":"https://thecommonroom.org.uk/collection/coal-shipped-from-english-scottish-and-irish-ports-16113/page-499-504-26942/#collection-gallery"},"geometry":{"type":"Point","coordinates":[-2.002389,55.76389]}},{"@id":"https://w3id.org/Final%20copy%20-%20Sheet1/a23a801e-eff6-47cd-a491-fb74bdc37ae0","type":"Feature","properties":{"title":"1837 - A document listing the quantity of coal shipped from English, Scottish and Irish ports in 1836 and 1837. Port of Newcastle (now Port of the Tyne) appears on the list","url":"https://thecommonroom.org.uk/collection/coal-shipped-from-english-scottish-and-irish-ports-16113/page-499-504-26942/#collection-gallery"},"geometry":{"type":"Point","coordinates":[-1.4527902,54.992471]}},{"@id":"https://w3id.org/Final%20copy%20-%20Sheet1/4524d383-6bbe-41d8-b7c2-83a4c50fd722","type":"Feature","properties":{"title":"1837 - A document listing the quantity of coal shipped from English, Scottish and Irish ports in 1836 and 1837. Sunderland Port appears on the list","url":"https://thecommonroom.org.uk/collection/coal-shipped-from-english-scottish-and-irish-ports-16113/page-499-504-26942/#collection-gallery"},"geometry":{"type":"Point","coordinates":[-1.381408,54.91129]}},{"@id":"https://w3id.org/Final%20copy%20-%20Sheet1/6d012e36-76e6-4ef5-865c-b2960ecc47bf","type":"Feature","properties":{"title":"1837 - A document listing the quantity of coal shipped from English, Scottish and Irish ports in 1836 and 1837. Stockton Port, which has now closed appears on the list","url":"https://thecommonroom.org.uk/collection/coal-shipped-from-english-scottish-and-irish-ports-16113/page-499-504-26942/#collection-gallery"},"geometry":{"type":"Point","coordinates":[-1.308264,54.56527]}},{"@id":"https://w3id.org/Final%20copy%20-%20Sheet1/b8ce5022-88f0-4ac7-b70d-daa996351a0b","type":"Feature","properties":{"title":"1837 - A document listing the quantity of coal shipped from English, Scottish and Irish ports in 1836 and 1837. Hull Port appears on the list","url":"https://thecommonroom.org.uk/collection/coal-shipped-from-english-scottish-and-irish-ports-16113/page-499-504-26942/#collection-gallery"},"geometry":{"type":"Point","coordinates":[-0.2797584,53.74237]}},{"@id":"https://w3id.org/Final%20copy%20-%20Sheet1/2fb7801f-09ce-4b95-874f-afe479f91e0d","type":"Feature","properties":{"title":"1837 - A document listing the quantity of coal shipped from English, Scottish and Irish ports in 1836 and 1837. Goole Port appears on the list","url":"https://thecommonroom.org.uk/collection/coal-shipped-from-english-scottish-and-irish-ports-16113/page-499-504-26942/#collection-gallery"},"geometry":{"type":"Point","coordinates":[-0.8709594,53.69931]}},{"@id":"https://w3id.org/Final%20copy%20-%20Sheet1/4c3a110a-b8e4-4412-a8dc-cc0f52053508","type":"Feature","properties":{"title":"1837 - A document listing the quantity of coal shipped from English, Scottish and Irish ports in 1836 and 1837. Ipswich Port appears on the list","url":"https://thecommonroom.org.uk/collection/coal-shipped-from-english-scottish-and-irish-ports-16113/page-499-504-26942/#collection-gallery"},"geometry":{"type":"Point","coordinates":[1.158197,52.04032]}},{"@id":"https://w3id.org/Final%20copy%20-%20Sheet1/85dcfd1b-b38d-44f6-b36d-fb0080c07251","type":"Feature","properties":{"title":"1837 - A document listing the quantity of coal shipped from English, Scottish and Irish ports in 1836 and 1837. Maldon Port appears on the list","url":"https://thecommonroom.org.uk/collection/coal-shipped-from-english-scottish-and-irish-ports-16113/page-499-504-26942/#collection-gallery"},"geometry":{"type":"Point","coordinates":[-0.6748583333,51.73183333]}},{"@id":"https://w3id.org/Final%20copy%20-%20Sheet1/9912f9a3-fec8-45af-90f7-2793eb74089d","type":"Feature","properties":{"title":"1837 - A document listing the quantity of coal shipped from English, Scottish and Irish ports in 1836 and 1837. Port of Leith appears on the list","url":"https://thecommonroom.org.uk/collection/coal-shipped-from-english-scottish-and-irish-ports-16113/page-499-504-26942/#collection-gallery"},"geometry":{"type":"Point","coordinates":[-3.171328,55.98225]}},{"@id":"https://w3id.org/Final%20copy%20-%20Sheet1/f27c2721-2646-4531-97df-3c40f5c584c7","type":"Feature","properties":{"title":"1837 - A document listing the quantity of coal shipped from English, Scottish and Irish ports in 1836 and 1837. Borrowstounness (Bo'ness) harbour, which is now closed, appears on the list","url":"https://thecommonroom.org.uk/collection/coal-shipped-from-english-scottish-and-irish-ports-16113/page-499-504-26942/#collection-gallery"},"geometry":{"type":"Point","coordinates":[-3.6102,56.0159]}},{"@id":"https://w3id.org/Final%20copy%20-%20Sheet1/89a04400-0438-4a34-bfe2-c76ddc609760","type":"Feature","properties":{"title":"1837 - A document listing the quantity of coal shipped from English, Scottish and Irish ports in 1836 and 1837. Port of Grangemouth appears on the list","url":"https://thecommonroom.org.uk/collection/coal-shipped-from-english-scottish-and-irish-ports-16113/page-499-504-26942/#collection-gallery"},"geometry":{"type":"Point","coordinates":[-3.705,56.0285]}},{"@id":"https://w3id.org/Final%20copy%20-%20Sheet1/931bc879-af82-484d-8ccd-855ba5e75e96","type":"Feature","properties":{"title":"1837 - A document listing the quantity of coal shipped from English, Scottish and Irish ports in 1836 and 1837. Harbour of Kirkcaldy,  appears on the list","url":"https://thecommonroom.org.uk/collection/coal-shipped-from-english-scottish-and-irish-ports-16113/page-499-504-26942/#collection-gallery"},"geometry":{"type":"Point","coordinates":[-3.150157,56.11389]}},{"@id":"https://w3id.org/Final%20copy%20-%20Sheet1/15b38efc-1918-4668-9959-5722bf1a5199","type":"Feature","properties":{"title":"1837 - A document listing the quantity of coal shipped from English, Scottish and Irish ports in 1836 and 1837. Port of Campbeltown , which is now closed, appears on the list","url":"https://thecommonroom.org.uk/collection/coal-shipped-from-english-scottish-and-irish-ports-16113/page-499-504-26942/#collection-gallery"},"geometry":{"type":"Point","coordinates":[-5.60035,55.4255]}},{"@id":"https://w3id.org/Final%20copy%20-%20Sheet1/208d015d-7cec-4fe6-92f2-499b59b86938","type":"Feature","properties":{"title":"1837 - A document listing the quantity of coal shipped from English, Scottish and Irish ports in 1836 and 1837. Port of Greenock, appears on the list","url":"https://thecommonroom.org.uk/collection/coal-shipped-from-english-scottish-and-irish-ports-16113/page-499-504-26942/#collection-gallery"},"geometry":{"type":"Point","coordinates":[-4.743073,55.94802]}},{"@id":"https://w3id.org/Final%20copy%20-%20Sheet1/4b6042c2-f2ba-428e-b129-25767e36d0d4","type":"Feature","properties":{"title":"1837 - A document listing the quantity of coal shipped from English, Scottish and Irish ports in 1836 and 1837. Port Glasgow appears on the list","url":"https://thecommonroom.org.uk/collection/coal-shipped-from-english-scottish-and-irish-ports-16113/page-499-504-26942/#collection-gallery"},"geometry":{"type":"Point","coordinates":[-4.682665,55.93628]}},{"@id":"https://w3id.org/Final%20copy%20-%20Sheet1/0e598ddb-18eb-4bf9-b44a-39e7cd5833e0","type":"Feature","properties":{"title":"1837 - A document listing the quantity of coal shipped from English, Scottish and Irish ports in 1836 and 1837. Irvine Harbour appears on the list","url":"https://thecommonroom.org.uk/collection/coal-shipped-from-english-scottish-and-irish-ports-16113/page-499-504-26942/#collection-gallery"},"geometry":{"type":"Point","coordinates":[-4.68444,55.6078]}},{"@id":"https://w3id.org/Final%20copy%20-%20Sheet1/dbf6895a-8977-4649-a32b-4b8884e8c7d8","type":"Feature","properties":{"title":"1837 - A document listing the quantity of coal shipped from English, Scottish and Irish ports in 1836 and 1837. Port of Ayr appears on the list","url":"https://thecommonroom.org.uk/collection/coal-shipped-from-english-scottish-and-irish-ports-16113/page-499-504-26942/#collection-gallery"},"geometry":{"type":"Point","coordinates":[-4.633297,55.46622]}},{"@id":"https://w3id.org/Final%20copy%20-%20Sheet1/d05e885a-6b1d-488b-a07b-5d744772c73a","type":"Feature","properties":{"title":"1837 - A document listing the quantity of coal shipped from English, Scottish and Irish ports in 1836 and 1837. Port of Dublin appears on the list","url":"https://thecommonroom.org.uk/collection/coal-shipped-from-english-scottish-and-irish-ports-16113/page-499-504-26942/#collection-gallery"},"geometry":{"type":"Point","coordinates":[-6.206939,53.3455]}},{"@id":"https://w3id.org/Final%20copy%20-%20Sheet1/6c4e3fbd-ec05-4692-bb84-b0c753184a21","type":"Feature","properties":{"title":"1837 - A document listing the quantity of coal shipped from English, Scottish and Irish ports in 1836 and 1837. Port of Watford appears on the list","url":"https://thecommonroom.org.uk/collection/coal-shipped-from-english-scottish-and-irish-ports-16113/page-499-504-26942/#collection-gallery"},"geometry":{"type":"Point","coordinates":[-7.114593,52.26241]}},{"@id":"https://w3id.org/Final%20copy%20-%20Sheet1/03ee1784-1e73-4de5-b1e6-1d122786d5e3","type":"Feature","properties":{"title":"1838 - A newspaper cuttings regarding measures to regulate the Port of London after complaints of fraud was made","url":"Page 507 / To regulate the Port of London (thecommonroom.org.uk)"},"geometry":{"type":"Point","coordinates":[-0.04960075,51.49743]}},{"@id":"https://w3id.org/Final%20copy%20-%20Sheet1/eb6b7cd7-89bb-406c-86a6-8f8e18b88677","type":"Feature","properties":{"title":"1837 - A document listing the quantity of coal shipped from English, Scottish and Irish ports in 1836 and 1837. Port of Limerick appears on the list","url":"https://thecommonroom.org.uk/collection/coal-shipped-from-english-scottish-and-irish-ports-16113/page-499-504-26942/#collection-gallery"},"geometry":{"type":"Point","coordinates":[-8.642039,52.66005]}},{"@id":"https://w3id.org/Final%20copy%20-%20Sheet1/0ab0a801-d4d5-4fd7-9a82-41fd79c1f3c5","type":"Feature","properties":{"title":"Moor hall","url":"Page 289 / Blank (thecommonroom.org.uk)"},"geometry":{"type":"Point","coordinates":[-1.609452762,54.96887078]}},{"@id":"https://w3id.org/Final%20copy%20-%20Sheet1/02a5a5c5-4227-4ff3-af2e-529a5bbb0843","type":"Feature","properties":{"title":"Bates COlliery in Blyth","url":"Page 371-372 / Reports of large meetings at Blyth, Blackfell and Jarrow re dispute (thecommonroom.org.uk)"},"geometry":{"type":"Point","coordinates":[-1.5215887,55.134126]}},{"@id":"https://w3id.org/Final%20copy%20-%20Sheet1/f40490bc-da3d-4d8a-b41f-5fc53712d1de","type":"Feature","properties":{"title":"Bedlington Colliery","url":"Page 371-372 / Reports of large meetings at Blyth, Blackfell and Jarrow re dispute (thecommonroom.org.uk)"},"geometry":{"type":"Point","coordinates":[-1.574867,55.138817]}},{"@id":"https://w3id.org/Final%20copy%20-%20Sheet1/bf0a2b33-9a14-482a-b918-259ad2b428af","type":"Feature","properties":{"title":"Netherton","url":"Page 371-372 / Reports of large meetings at Blyth, Blackfell and Jarrow re dispute (thecommonroom.org.uk)"},"geometry":{"type":"Point","coordinates":[-1.6263354,55.137053]}},{"@id":"https://w3id.org/Final%20copy%20-%20Sheet1/c750a7c2-e8cf-4249-8906-07ecdb569361","type":"Feature","properties":{"title":"Cowpen","url":"Page 371-372 / Reports of large meetings at Blyth, Blackfell and Jarrow re dispute (thecommonroom.org.uk)"},"geometry":{"type":"Point","coordinates":[-1.514167,55.083889]}},{"@id":"https://w3id.org/Final%20copy%20-%20Sheet1/55bac411-e336-40ee-8ff9-5071b8f80f1c","type":"Feature","properties":{"title":"Jarrow","url":"Page 371-372 / Reports of large meetings at Blyth, Blackfell and Jarrow re dispute (thecommonroom.org.uk)"},"geometry":{"type":"Point","coordinates":[-1.4909374,54.981309]}},{"@id":"https://w3id.org/Final%20copy%20-%20Sheet1/74f85b09-c584-413c-af55-7c4219183597","type":"Feature","properties":{"title":"Walker","url":"Page 365 / Newspaper cutting re rewards for information on assaults by pitmen at Walker and Bigges Main (thecommonroom.org.uk)"},"geometry":{"type":"Point","coordinates":[-1.5427555,54.96985]}},{"@id":"https://w3id.org/Final%20copy%20-%20Sheet1/6e870e30-e2e5-4aea-bcbe-6b7b0bf83357","type":"Feature","properties":{"title":"Bigge's main","url":"Page 365 / Newspaper cutting re rewards for information on assaults by pitmen at Walker and Bigges Main (thecommonroom.org.uk)"},"geometry":{"type":"Point","coordinates":[-1.5532479,54.997028]}},{"@id":"https://w3id.org/Final%20copy%20-%20Sheet1/73e83a1d-cc8b-4180-a728-32faf6d28794","type":"Feature","properties":{"title":"1831 - A newspaper report about a meeting miners in Blackell regarding wages","url":"Page 364 / Newspaper reports re meetings of miners at Blackfell for higher wages (thecommonroom.org.uk)"},"geometry":{"type":"Point","coordinates":[-1.5663273,54.913233]}},{"@id":"https://w3id.org/Final%20copy%20-%20Sheet1/40aa76b1-fa5a-4467-8eb9-8259460f92cc","type":"Feature","properties":{"title":"1831 - A handbill published by a delagation of Pitmen \"of the Tyne and Wear\" in response to what they felt was a misrepresentation of their caue and meetings by the Tyne Mercury, a Northen Newspaper at the time.  A meeting held at Black Fell Colliery, later known as Mount Moor Colliery, is mentioned within the handbill.","url":"Page 284 / Handbill entitled To the Public being an answer to the Tyne Mercury from a delegate meeting of the pitmen. (thecommonroom.org.uk)"},"geometry":{"type":"Point","coordinates":[-1.5663273,54.913233]}},{"@id":"https://w3id.org/Final%20copy%20-%20Sheet1/56f91b30-0aeb-4655-8d0e-479a868c73fc","type":"Feature","properties":{"title":"1831 - A handbill published by a delagation of Pitmen \"of the Tyne and Wear\" in response to what they felt was a misrepresentation of their caue and meetings by the Tyne Mercury, a Northen Newspaper at the time.  A meeting held at Seghill Colliery, is mentioned within the handbill.","url":"Page 284 / Handbill entitled To the Public being an answer to the Tyne Mercury from a delegate meeting of the pitmen. (thecommonroom.org.uk)"},"geometry":{"type":"Point","coordinates":[-1.5474347,55.067728]}},{"@id":"https://w3id.org/Final%20copy%20-%20Sheet1/163af4ab-668b-4a7e-b542-039e664dca28","type":"Feature","properties":{"title":"1832 - A hanbill published giving a calender of prisoners in local gaols coming to trial for charges ranging from concealing a pregnany to murder. Durham Gaol is featured, with 24 defendants. ","url":"Page 469 / Handbill giving a calendar of prisoners in Durham, Newcastle and Morpeth gaols coming to trial at the Assizes. (thecommonroom.org.uk)"},"geometry":{"type":"Point","coordinates":[-1.568056,54.773333]}},{"@id":"https://w3id.org/Final%20copy%20-%20Sheet1/e3f902f1-c96e-4221-93f6-87f4c16d4d8f","type":"Feature","properties":{"title":"1832 - A hanbill published giving a calender of prisoners in local gaols coming to trial for charges ranging from concealing a pregnany to murder. Newcastle Gaol is featured, with 24 defendants. ","url":"Page 469 / Handbill giving a calendar of prisoners in Durham, Newcastle and Morpeth gaols coming to trial at the Assizes. (thecommonroom.org.uk)"},"geometry":null},{"@id":"https://w3id.org/Final%20copy%20-%20Sheet1/4236b94a-8ab3-49b2-8d6d-69682b54cd2c","type":"Feature","properties":{"title":"1832 - A hanbill published giving a calender of prisoners in local gaols coming to trial for charges ranging from concealing a pregnany to murder. Morpeth Gaol is featured, with 13 defendants. ","url":"Page 469 / Handbill giving a calendar of prisoners in Durham, Newcastle and Morpeth gaols coming to trial at the Assizes. (thecommonroom.org.uk)"},"geometry":{"type":"Point","coordinates":[-1.687131,55.167057]}},{"@id":"https://w3id.org/Final%20copy%20-%20Sheet1/c6a44c8c-0a19-4b8d-a083-fd5f25494de4","type":"Feature","properties":{"title":"1832 - Newspaper report from  a local paper regarding the murder of Magistrate Nicholas Fairles. Fairles was murdered at Jarrow Colliery by \"pitmen\"","url":"Page 467 / Newspaper report from Local Papers of murder of magistrate Nicholas Fairles at Jarrow Colliery (thecommonroom.org.uk)"},"geometry":{"type":"Point","coordinates":[-1.4826042,54.982909]}},{"@id":"https://w3id.org/Final%20copy%20-%20Sheet1/46cfa996-def6-4966-89b1-733a7ff8433c","type":"Feature","properties":{"title":"1832 - Pamphlet entitled impartial enquiry into the Causes of Dispute between Coal Owners and Pitment. In the pamphlet it mentions rioting at Waldridge fell. ","url":"https://thecommonroom.org.uk/collection/pamphlet-entitled-impartial-enquiry-into-the-causes-of-dispute-between-coal-owners-and-pitmen-by-scrutator-16501/page-437-448-27331/#collection-gallery"},"geometry":{"type":"Point","coordinates":[-1.610556,54.840278]}},{"@id":"https://w3id.org/Final%20copy%20-%20Sheet1/172b632f-9d93-4b27-86f9-a70f1481a37e","type":"Feature","properties":{"title":"1832 - Pamphlet entitled impartial enquiry into the Causes of Dispute between Coal Owners and Pitment. In the pamphlet it mentions Hetton where the writer says \"atrocities (where) committed\"","url":"https://thecommonroom.org.uk/collection/pamphlet-entitled-impartial-enquiry-into-the-causes-of-dispute-between-coal-owners-and-pitmen-by-scrutator-16501/page-437-448-27331/#collection-gallery"},"geometry":{"type":"Point","coordinates":[-1.4420939,54.816481]}},{"@id":"https://w3id.org/Final%20copy%20-%20Sheet1/47f6a91c-cd17-42e8-bfad-49914b832f33","type":"Feature","properties":{"title":"1832 - Newspaper cutting regarding the Pitman's dispute. The clipping highlights the dispute at Burdon Main Colliery ","url":"https://thecommonroom.org.uk/collection/newspaper-cuttings-re-the-pitmens-dispute-16496/page-431-432-27326/#collection-gallery"},"geometry":{"type":"Point","coordinates":[-1.4497382,54.998132]}},{"@id":"https://w3id.org/Final%20copy%20-%20Sheet1/c52b98c1-b5c2-4f99-80bf-11260f698ad8","type":"Feature","properties":{"title":"1832 - Newspaper cutting regarding the Pitman's dispute. The clipping highlights an assault that took place at Tyne Main colliery","url":"https://thecommonroom.org.uk/collection/newspaper-cuttings-re-the-pitmens-dispute-16496/page-431-432-27326/#collection-gallery"},"geometry":{"type":"Point","coordinates":[-1.5800664,54.951033]}},{"@id":"https://w3id.org/Final%20copy%20-%20Sheet1/889017aa-b312-44c9-b2ef-011fc1b94c28","type":"Feature","properties":{"title":"1832 - Newspaper cutting regarding the Pitman's dispute. The clipping highlights an assault that took place at Friar's Goose colliery","url":"https://thecommonroom.org.uk/collection/newspaper-cuttings-re-the-pitmens-dispute-16496/page-431-432-27326/#collection-gallery"},"geometry":{"type":"Point","coordinates":[-1.5863016,54.952025]}},{"@id":"https://w3id.org/Final%20copy%20-%20Sheet1/759fbff4-0675-4f9d-9ccb-443b4d991232","type":"Feature","properties":{"title":"1832 - Newspaper cutting regarding the pitmen's dispute. The clipping mentions the collieries which have been left \"unworked\" due to the dispute, including St Lawrence Colliery in Byker","url":"https://thecommonroom.org.uk/collection/newspaper-cuttings-re-the-pitmens-dispute-16492/page-425-27322/"},"geometry":{"type":"Point","coordinates":[-1.5818615,54.970638]}},{"@id":"https://w3id.org/Final%20copy%20-%20Sheet1/4cfd9076-853c-46d6-9991-2cecfc51dd1f","type":"Feature","properties":{"title":"1832 - Newspaper cutting regarding the pitmen's dispute. The clipping mentions the collieries which have been left \"unworked\" due to the dispute, including Burdon Main Colliery where police were used to remove miner's from their homes","url":"https://thecommonroom.org.uk/collection/newspaper-cuttings-re-the-pitmens-dispute-16492/page-425-27322/"},"geometry":{"type":"Point","coordinates":[-1.4497382,54.998132]}},{"@id":"https://w3id.org/Final%20copy%20-%20Sheet1/a70e6a15-4a8e-4405-8e63-f12a447175f9","type":"Feature","properties":{"title":"1832 - Newspaper cutting regarding the pitmen's dispute. The clipping mentions the collieries which have been left \"unworked\" due to the dispute, including Cramlington Colliery","url":"https://thecommonroom.org.uk/collection/newspaper-cuttings-re-the-pitmens-dispute-16492/page-425-27322/"},"geometry":{"type":"Point","coordinates":[-1.5660787,55.081275]}},{"@id":"https://w3id.org/Final%20copy%20-%20Sheet1/098da3ea-3f5a-4486-a5f1-8f9eccbbd5c6","type":"Feature","properties":{"title":"1832 - Newspaper cutting regarding the pitmen's dispute. The clipping mentions the collieries which have been left \"unworked\" due to the dispute, including Elswick Colliery where pitmen were due to be removed from their homes due to the dispute","url":"https://thecommonroom.org.uk/collection/newspaper-cuttings-re-the-pitmens-dispute-16492/page-425-27322/"},"geometry":{"type":"Point","coordinates":[-1.6413,54.972302]}},{"@id":"https://w3id.org/Final%20copy%20-%20Sheet1/eb39a23d-dce1-4e2a-bab6-509ef2793efb","type":"Feature","properties":{"title":"1832 - Newspaper cutting regarding the pitmen's dispute. The clipping mentions the collieries which have been left \"unworked\" due to the dispute, including Fawdon Colliery where pitmen were removed by the millitary and local police from their homes. This was to make room for other work men during the dispute","url":"https://thecommonroom.org.uk/collection/newspaper-cuttings-re-the-pitmens-dispute-16492/page-425-27322/"},"geometry":{"type":"Point","coordinates":[-1.6460854,55.014362]}},{"@id":"https://w3id.org/Final%20copy%20-%20Sheet1/064e6677-eaeb-4cb8-843d-f2a9fdb28e11","type":"Feature","properties":{"title":"1832 - Newspaper cutting regarding the pitmen's dispute. The clipping mentions the collieries which have been left \"unworked\" due to the dispute, including Felling Colliery","url":"https://thecommonroom.org.uk/collection/newspaper-cuttings-re-the-pitmens-dispute-16492/page-425-27322/"},"geometry":{"type":"Point","coordinates":[-1.5721357,54.955364]}},{"@id":"https://w3id.org/Final%20copy%20-%20Sheet1/771a14af-3f8b-496c-926b-3a2deb58ec80","type":"Feature","properties":{"title":"1832 - Newspaper cutting regarding the pitmen's dispute. The clipping mentions the collieries which have been left \"unworked\" due to the dispute, including Hebburn Colliery","url":"https://thecommonroom.org.uk/collection/newspaper-cuttings-re-the-pitmens-dispute-16492/page-425-27322/"},"geometry":{"type":"Point","coordinates":[-1.5102967,54.98262]}},{"@id":"https://w3id.org/Final%20copy%20-%20Sheet1/24c994aa-abed-4a55-ae80-bf024add4849","type":"Feature","properties":{"title":"1832 - Newspaper cutting regarding the pitmen's dispute. The clipping mentions the collieries which have been left \"unworked\" due to the dispute, including Heworth Colliery","url":"https://thecommonroom.org.uk/collection/newspaper-cuttings-re-the-pitmens-dispute-16492/page-425-27322/"},"geometry":{"type":"Point","coordinates":[-1.5598136,54.938371]}},{"@id":"https://w3id.org/Final%20copy%20-%20Sheet1/8fca52c3-09b1-4098-9c43-7a328a1b9650","type":"Feature","properties":{"title":"1832 - Newspaper cutting regarding the pitmen's dispute. The clipping mentions the collieries which have been left \"unworked\" due to the dispute, including Jesmond Colliery","url":"https://thecommonroom.org.uk/collection/newspaper-cuttings-re-the-pitmens-dispute-16492/page-425-27322/"},"geometry":{"type":"Point","coordinates":[-1.6014575,54.988838]}},{"@id":"https://w3id.org/Final%20copy%20-%20Sheet1/7718bded-e52e-4fca-871b-5e000359599d","type":"Feature","properties":{"title":"1832 - Newspaper cutting regarding the pitmen's dispute. The clipping mentions the collieries which have been left \"unworked\" due to the dispute, including Wallsend Manor Colliery","url":"https://thecommonroom.org.uk/collection/newspaper-cuttings-re-the-pitmens-dispute-16492/page-425-27322/"},"geometry":{"type":"Point","coordinates":[-1.5337258,54.987474]}},{"@id":"https://w3id.org/Final%20copy%20-%20Sheet1/aed42686-5393-4d10-a767-8dcfb16e396f","type":"Feature","properties":{"title":"1832 - Newspaper cutting regarding the pitmen's dispute. The clipping mentions the collieries which have been left \"unworked\" due to the dispute, including Mount Moor Colliery in Springwell","url":"https://thecommonroom.org.uk/collection/newspaper-cuttings-re-the-pitmens-dispute-16492/page-425-27322/"},"geometry":{"type":"Point","coordinates":[-1.5563055,54.923846]}},{"@id":"https://w3id.org/Final%20copy%20-%20Sheet1/5df0c0e8-c8ef-4172-be7e-42b67b92a0a9","type":"Feature","properties":{"title":"1832 - Newspaper cutting regarding the pitmen's dispute. The clipping mentions the collieries which have been left \"unworked\" due to the dispute, including Pelaw Main Colliery","url":"https://thecommonroom.org.uk/collection/newspaper-cuttings-re-the-pitmens-dispute-16492/page-425-27322/"},"geometry":{"type":"Point","coordinates":[-1.5891288,54.864561]}},{"@id":"https://w3id.org/Final%20copy%20-%20Sheet1/72a0e2db-55fa-4585-b99c-6828984de188","type":"Feature","properties":{"title":"1832 - Newspaper cutting regarding the pitmen's dispute. The clipping mentions the collieries which have been left \"unworked\" due to the dispute, including Sheriff's Hill colliery","url":"https://thecommonroom.org.uk/collection/newspaper-cuttings-re-the-pitmens-dispute-16492/page-425-27322/"},"geometry":{"type":"Point","coordinates":[-1.6006493,54.933246]}},{"@id":"https://w3id.org/Final%20copy%20-%20Sheet1/324fb1db-0bbf-4c85-b12c-9f827d333100","type":"Feature","properties":{"title":"1832 - Newspaper cutting regarding the pitmen's dispute. The clipping mentions the collieries which have been left \"unworked\" due to the dispute, including Springwell colliery","url":"https://thecommonroom.org.uk/collection/newspaper-cuttings-re-the-pitmens-dispute-16492/page-425-27322/"},"geometry":{"type":"Point","coordinates":[-1.5611038,54.910177]}},{"@id":"https://w3id.org/Final%20copy%20-%20Sheet1/56754745-c443-4dfd-9f0a-82a49fcc49ea","type":"Feature","properties":{"title":"1832 - Newspaper cutting regarding the pitmen's dispute. The clipping mentions the collieries which have been left \"unworked\" due to the dispute, including Team colliery","url":"https://thecommonroom.org.uk/collection/newspaper-cuttings-re-the-pitmens-dispute-16492/page-425-27322/"},"geometry":{"type":"Point","coordinates":[1.591741,54.917527]}},{"@id":"https://w3id.org/Final%20copy%20-%20Sheet1/1acb1990-7613-4da9-b584-095aebd2c2af","type":"Feature","properties":{"title":"1832 - Newspaper cutting regarding the pitmen's dispute. The clipping mentions the collieries which have been left \"unworked\" due to the dispute, including Townley Colliery where pitmen were set to be removed from their homes in the coming days","url":"https://thecommonroom.org.uk/collection/newspaper-cuttings-re-the-pitmens-dispute-16492/page-425-27322/"},"geometry":{"type":"Point","coordinates":[-1.7765979,54.969516]}},{"@id":"https://w3id.org/Final%20copy%20-%20Sheet1/0cb0a5d7-046d-447a-bc57-eb7498ae7d97","type":"Feature","properties":{"title":"1832 - Newspaper cutting regarding the pitmen's dispute. The clipping mentions the collieries which have been left \"unworked\" due to the dispute, including Tyne Main Colliery.","url":"https://thecommonroom.org.uk/collection/newspaper-cuttings-re-the-pitmens-dispute-16492/page-425-27322/"},"geometry":{"type":"Point","coordinates":[-1.572941,54.962356]}},{"@id":"https://w3id.org/Final%20copy%20-%20Sheet1/975cc639-1892-4998-adb5-1633003baf67","type":"Feature","properties":{"title":"1832 - Newspaper cutting regarding the pitmen's dispute. The clipping mentions the collieries which have been left \"unworked\" due to the dispute, including Woodside Colliery in Etherley","url":"https://thecommonroom.org.uk/collection/newspaper-cuttings-re-the-pitmens-dispute-16492/page-425-27322/"},"geometry":{"type":"Point","coordinates":[-1.7241631,54.653579]}},